time,mach,altitude,velocity,qbar,alpha_rad,beta_rad,left_elevon,right_elevon,rudder,body_flap,clift,cdrag,cy,cl_roll,cm_pitch,cn_yaw,lift,drag,side_force,mx,my,mz,lift_to_drag
0.0,7.5,29413.728289325874,2212.5,50428.429732384146,0.06981317007977318,0.025102662500371565,0.0,-0.008668584862768955,-0.013593264481888577,0.028109299354701904,0.21909564307435606,0.06705266578568603,-0.005741873053436854,0.0009391058533117194,-0.008128117307227714,-0.0005219292652464424,13258.379089736018,4057.6327739310077,-347.46437016901245,261.4141371132038,-2262.5828225122773,-145.28680449320817,3.2675157729691215
0.05,7.514399846400491,29421.078085580637,2216.747954688145,50570.60964210642,0.07106977698213678,0.02553804928234268,0.0008115456056278892,-0.009330350840251639,-0.01315799923047277,0.028458155033722572,0.22113773463944303,0.06726042002507947,-0.005781068801564232,0.001405200849011625,-0.008983561090699732,-0.00035651388604179867,13419.684066709186,4081.6805345428934,-350.8226084136777,392.26148709476115,-2507.758969348131,-99.52076758781637,3.287784027470943
0.1,7.528798771215729,29428.41514425542,2220.99563750864,50712.89526275801,0.07232620293527782,0.025971131272700104,0.0016228962413275337,-0.009989875245823624,-0.012720335970117302,0.028803873229976563,0.22317958304706187,0.067467862770468,-0.005819633866396575,0.0018706518038153859,-0.009838100589335581,-0.0001907515995064864,13581.69938382198,4105.788789937048,-354.15657928100273,523.661252879884,-2754.030477538421,-53.39808369610755,3.3079391266081717
0.15000000000000002,7.543195852919438,29435.73924340476,2225.242776611234,50855.27587390651,0.07358226701603018,0.026401869386088142,0.002433856984011276,-0.010646999631918772,-0.012280354463739965,0.02914641582838291,0.22522087354160314,0.06767497126234279,-0.005857568391232462,0.002335341698529165,-0.010691615023320842,-2.4667834241814002e-05,13744.403587824527,4129.955199966165,-357.46590778368187,655.5797437887303,-3001.362174148188,-6.924782125997452,3.327978857479405
0.2,7.557590170103304,29443.050161475214,2229.489100180475,50997.740729597914,0.07483778835333671,0.02683022474868445,0.0032442330042613803,-0.01130156612756406,-0.011838134896752464,0.02948574506396711,0.22726129146354718,0.06788172277774818,-0.005894872595470923,0.0027991537249258936,-0.011543983706806054,0.00014171189668649295,13907.774903917874,4154.177398197651,-360.7502211094057,787.9828479118454,-3249.7183261265154,39.89296584165567,3.347901057367449
0.25,7.5719808015359416,29450.347677312067,2233.734336453103,51140.27905925844,0.07609258615429432,0.02725615870170828,0.0040538296131368634,-0.011953417476307363,-0.011393757862446863,0.029821823526024655,0.22930052229602313,0.06808809463304552,-0.005931546773927709,0.003261971314274374,-0.012395086065233098,0.0003083619999688092,14071.791238382802,4178.452992176573,-364.0091487260486,920.836040589987,-3499.0626450742952,87.04884738781121,3.3677036129710647
0.30000000000000004,7.58636682622185,29457.631570166024,2237.978213735446,51282.88006860542,0.07734647973018798,0.027679632804909496,0.004862452308946578,-0.012602397073997518,-0.010947304347307674,0.030154614162245515,0.23133825171134423,0.06829406418667278,-0.005967591296141399,0.003723678165808234,-0.013244801652654051,0.00047525680628914425,14236.430181352462,4202.779563699336,-367.2423224861675,1054.10439316758,-3749.3582922640953,134.5364086489047,3.3873844596363716
0.35000000000000003,7.60074732346036,29464.90161969988,2242.2204604208064,51425.532940566394,0.07859928852250947,0.028100608840037695,0.0056699068239772984,-0.013248349006407758,-0.010498855716252285,0.030484080282799152,0.2333741656175133,0.0684996088418991,-0.00600300660566949,0.004184158275127903,-0.01409301016903973,0.0006423705745789289,14401.669009728752,4227.154669097994,-370.4493767307528,1187.7525820178566,-4000.5678839118873,182.34905526968714,3.406941580588494
0.4,7.615121372904556,29472.157605995188,2246.460805006844,51568.22683620651,0.07985083212895755,0.02851904881429147,0.006475999171165623,-0.013891118086693325,-0.010048493697802448,0.030810185564379488,0.2354079502046916,0.06870470604957458,-0.006037793219374685,0.004643295962528725,-0.0149395914775756,0.0008096774962863392,14567.48469024233,4251.575839535221,-373.62994839218794,1321.7448978375435,-4252.653496700435,230.4800530155146,3.4263730061639532
0.45,7.629488054620182,29479.39930955892,2250.698976112954,51710.95089566432,0.08110093032941557,0.028934914963747133,0.007280535690702416,-0.014530549892674379,-0.00959630036918946,0.03113289405420955,0.23743929199162395,0.0689093333108742,-0.006071951726701536,0.0051009759012483405,-0.015784425621942443,0.0009771516996603963,14733.853882656202,4276.040581309898,-376.78367709636876,1456.0452552087982,-4505.576673553973,278.9225284443203,3.4456768130443507
0.5,7.643846449144511,29486.626511330098,2254.9347024976305,51853.69423909527,0.08234940311190277,0.029348169756766993,0.00808332309655865,-0.01516649080393518,-0.009142358141395834,0.03145217017400521,0.23946787787201376,0.06911346818003614,-0.006105482788943684,0.005557083145626544,-0.016627392843579173,0.0011447672540491221,14900.75294311249,4300.54637617324,-379.9102052639332,1590.6172024259076,-4759.298429663599,327.66946963848306,3.464851123491812
0.55,7.658195637545194,29493.838992686415,2259.167713075832,51996.44596762327,0.08359607069849585,0.029758775897386475,0.008884168522921452,-0.015798788038730652,-0.008686749744136121,0.03176797872389765,0.24149339516084134,0.06931708826709367,-0.006138387138501816,0.006011503159170799,-0.01746837359892548,0.0013124981742109855,15068.157927622298,4325.090681655491,-383.00917821055594,1725.423931584116,-5013.7792587628965,376.7137269967707,3.483894104586668
0.6000000000000001,7.672534701479071,29501.036535450858,2263.397736936326,52139.195164299425,0.08484075357121658,0.030166696328680066,0.009682879570529178,-0.01642728969069146,-0.008229558210779636,0.03208028488631415,0.24351553164061818,0.06952017124060071,-0.006170665578132579,0.006464121842520612,-0.01830724857664147,0.0014803184246389022,15236.044595697987,4349.670931403036,-386.0802442462549,1860.428288927721,-5268.979139652864,426.048014086509,3.5028039674678166
0.65,7.686862723250945,29508.218921898315,2267.624503359029,52281.93089506853,0.08608327249788209,0.030571894236105745,0.01047926435289441,-0.017051844765318798,-0.007770866863217874,0.03238905422981663,0.245533975607571,0.06972269483035022,-0.006202318980188643,0.006914825561304032,-0.019143898714802043,0.0016482019238960419,15404.388414127763,4374.284535525986,-389.12305477367346,1995.5927854544805,-5524.857542975483,475.6649085561102,3.521578966576179
0.7000000000000001,7.7011787858723135,29515.385934762133,2271.8477418323323,52424.64220974242,0.08732344855791399,0.030974333050827384,0.011273131542403773,-0.017672303216260076,-0.007310759296679312,0.03269425271289774,0.24754841591774865,0.0699246368300855,-0.006233348285850067,0.007363501173879518,-0.019978205218063316,0.0018161225489626647,15573.164560891773,4398.928880956091,-392.1372643852812,2130.879607773119,-5781.373438234776,525.5568531080403,3.540217398901662
0.75,7.715481973120055,29522.53735724073,2276.0671820704165,52567.3181429805,0.08856110316810265,0.031373976453015116,0.012064290416283457,-0.018288515981356827,-0.006849319364494418,0.03299584668773385,0.24955854203304517,0.07012597510020377,-0.006263754504347218,0.007810036058956488,-0.02081004957479858,0.001984054139593265,15742.347929219346,4423.601331814968,-395.1225309594568,2266.2506292106204,-6038.485301064374,575.7161565323092,3.5587176032340118
0.8,7.729771369595068,29529.672973004115,2280.282554030545,52709.94771527684,0.08979605810832285,0.031770788375123135,0.01285255090241947,-0.018900335018456223,-0.00638663116281361,0.03329380290389474,0.2515640440671328,0.07032668757045162,-0.006293538712175389,0.008254318143087885,-0.02163931357420145,0.0021519705026832375,15911.913131786601,4448.299229792537,-398.0785157554026,2401.6674211657773,-6296.1511207403255,626.134994800508,3.577077959417922
0.8500000000000001,7.744046060780855,29536.792566200456,2284.493587930352,52852.51993395418,0.09102813554719723,0.03216473300514484,0.013637723625021515,-0.01950761334097741,-0.005922779015280967,0.03358808851200936,0.2535646128312973,0.07052675224261253,-0.006322702052301357,0.008696235928028049,-0.022465879323353356,0.002319845416644329,16081.834505053816,4473.0198945356715,-401.0048835068526,2537.091264705319,-6554.328407937808,676.805412220414,3.5952968876127063
0.9,7.758305133102053,29543.895921462605,2288.7000142651054,52995.02379416379,0.09225715806770356,0.032555774789844734,0.014419619950119646,-0.020110205053224396,-0.005457847457666481,0.033878671067387525,0.25555993988016945,0.0707261471931852,-0.0063512457333620344,0.009135678517949396,-0.023289629264253153,0.002487652635788083,16252.086113741578,4497.760624046856,-403.90130251452274,2672.483162398767,-6812.974202730247,727.7193226511246,3.6133728475569202
0.9500000000000001,7.772547673982901,29550.9828239146,2292.9015638249557,53137.44827989192,0.09348294869272265,0.03294387843796718,0.015198052030882652,-0.020707965385436764,-0.0049919212224596365,0.034165518533596825,0.25754971755734707,0.07092485057605316,-0.006379171028855459,0.009572535646511227,-0.024110446190806267,0.002655365894716556,16422.641755445162,4522.518695092905,-406.76744473727024,2807.8038503879943,-7072.04508282935,778.8685107786882,3.631304337838187
1.0,7.7867727719056425,29558.053059178194,2297.0979677121645,53279.78236497198,0.09470533091052268,0.03332900892342136,0.015972832852747358,-0.021300750728569903,-0.0045250852234271655,0.034448599285994676,0.25953363904089854,0.07112284062514496,-0.0064064792763242895,0.010006697703774159,-0.02492821326577075,0.0028229589127195002,16593.47496538592,4547.2913636235735,-409.6029858819136,2943.013810687319,-7331.497172064259,830.24463345214,3.649089895168533
1.05,7.800979516468868,29565.106413379297,2301.288957358316,53422.01501410259,0.09592412870017653,0.03371113148844238,0.016743776278347992,-0.021888418668796407,-0.004057424540137729,0.03472788211521486,0.2615113983887442,0.07132009565708451,-0.006433171876532024,0.010438055762953705,-0.025742814037657852,0.0029904053981772765,16764.55902129895,4572.075865200002,-412.40760549167555,3078.0732837097717,-7591.286149098047,881.8392210798329,3.6667280936655224
1.1,7.815166998445773,29572.14267315449,2305.474264541503,53564.13518387109,0.09713916655690855,0.034090211646728104,0.01751069709223476,-0.022470828021720294,-0.003589024402456419,0.035003336230608334,0.2634826905839059,0.0715165940738314,-0.006459250292632136,0.010866501607006472,-0.026554132457584624,0.0031576790529687037,16935.866948455696,4596.869415432887,-415.18098703320794,3212.942281015028,-7851.36725637962,933.6436790859251,3.684217544139406
1.1500000000000001,7.829334309842355,29579.161625657445,2309.6536214034945,53706.13182378228,0.09835026951736696,0.03446621518655154,0.018273411045370985,-0.023047838866295897,-0.0031199701750118398,0.0352749312636379,0.2654472115796216,0.07171231436531088,-0.0064847160493303425,0.011291927755042619,-0.027362052896076024,0.003324753576883106,17107.371524820697,4621.669210430282,-417.9228179821584,3347.5805982743345,-8111.695309328912,985.64928942685,3.7015568933865746
1.2000000000000002,7.843480543955518,29586.16305856539,2313.826760466878,53847.99387729253,0.09955726318481824,0.03483910817384846,0.019031734899398058,-0.023619312578443213,-0.0026503473416386457,0.035542637271226266,0.2674046583443149,0.07190723511203283,-0.0065095707320402,0.011714227488558156,-0.028166460159814024,0.003491602672035767,17279.045286341003,4646.472427254934,-420.632789907244,3481.9478284476245,-8372.224705753295,1037.8472121675754,3.7187448234895055
1.25,7.857604795431111,29593.146760085514,2317.9934146521778,53989.71028284862,0.10075997375425991,0.03520885695527983,0.01978548647065756,-0.024185111864351665,-0.00218024148979835,0.03580642473905727,0.26935472890641576,0.07210133498769997,-0.006533815986032221,0.012133294877480752,-0.028967239508331216,0.003658200047286008,17450.86053236714,4671.276224391045,-423.3105985527894,3616.0033751677943,-8632.90943549276,1090.228487117404,3.7357800511234087
1.3,7.871706160321857,29600.112518961374,2322.1533172949476,54131.269974931485,0.10195822803744829,0.03557542816126911,0.020534484673960022,-0.024745100793464283,-0.0017097382949812384,0.03606626458482977,0.2712971223990246,0.07229459276180429,-0.00655745351557675,0.012549024806022735,-0.029764276670646662,0.0038245194226571707,17622.789331204356,4696.077742220346,-425.9559439196983,3749.706466327047,-8893.703090291658,1142.7840355250787,3.7526613268698035
1.35,7.8857837361452185,29607.060124479296,2326.3062021628393,54272.66188510397,0.10315185348783715,0.03593878870901377,0.02127854956608975,-0.025299144831134383,-0.001238923505092259,0.03632212816146396,0.27323153910441345,0.07248698730221192,-0.0065804850830807815,0.012961312998335103,-0.03055745786184111,0.003990534533757664,17794.80352579247,4720.874103507326,-428.5685303448162,3883.0161678599557,-9154.558873894159,1195.5046618328631,3.769387434537176
1.4000000000000001,7.899836621941147,29613.989366474743,2330.4518034726384,54413.87494306366,0.10434067822542424,0.036298905805471016,0.022017502389035336,-0.02584711087094686,-0.0007678829248236998,0.03657398726025969,0.27515768049835765,0.07267849757773569,-0.006602912508218916,0.013370056043956267,-0.031346669799569564,0.00415621913620236,17966.874739513318,4745.662413893598,-431.1480665786578,4015.8913977178895,-9415.429612361193,1248.3810554893237,3.7859571904888876
1.4500000000000002,7.913863918329748,29620.900035338676,2334.5898559072757,54554.89807769902,0.10552453106150159,0.036655746950317314,0.022751165612935415,-0.026388867266696318,-0.0002967024000175182,0.03682181411400644,0.27707524929429256,0.07286910266069539,-0.0066247376670586925,0.013775151423049406,-0.03213179972050845,0.004321547010033522,18138.97438212381,4770.439762401148,-433.69426586145664,4148.290940029106,-9676.267764605675,1301.4037928204077,3.802369442978515
1.5,7.927864727568842,29627.791922023887,2338.7200946328085,54695.72021814984,0.10670324152330651,0.03700927993888155,0.023479362978729327,-0.02692428386401453,0.00017453219797982047,0.0370655814000446,0.27898394948728705,0.07305878172946513,-0.006645962491180495,0.014176497531422388,-0.03291273539673509,0.004486491964140539,18311.073655813318,4795.203221944442,-436.2068459975117,4280.173459438878,-9937.02543314348,1354.5633389584784,3.8186230714927296
1.55,7.941838153611416,29634.66481805133,2342.8422553153678,54836.33029487136,0.1078766398785693,0.037359472865051466,0.024201919540502558,-0.027453232031639317,0.0006457349879671678,0.03730526224327781,0.28088348639782934,0.07324751407100763,-0.0066665889667922185,0.014573993705324122,-0.03368936515203697,0.00465102784067764,18483.14356138365,4819.949849851214,-438.6855294277959,4411.497515623723,-10197.654375056987,1407.8500498288681,3.834716986101879
1.6,7.955783302162972,29641.51851551642,2346.956074138077,54976.71724070153,0.10904455715995441,0.03770629412415317,0.02491866170751661,-0.02797558469231764,0.0011168200945402915,0.03754083021913587,0.2827735667154174,0.07343527908339495,-0.006686619133838944,0.01496754024601139,-0.03446157787814849,0.004815128519478856,18655.154904549785,4844.67668839177,-441.1300433007939,4542.221577973713,-10458.106013168124,1461.2541741935083,3.850650126818373
1.6500000000000001,7.969699280738764,29648.35280709534,2351.0612878179354,55116.86999193201,0.11020682518939151,0.03804971241580343,0.02562941728591337,-0.028491216353335267,0.001587701663742437,0.037772259356488064,0.28465389854194906,0.0736220562783156,-0.006706055085107798,0.015357038444080264,-0.035229263050912625,0.004978767922469445,18827.078302359852,4869.380765316747,-443.54011954154527,4672.304040436775,-10718.331447417762,1514.7658557511788,3.8664214629629967
1.7000000000000002,7.983585198720911,29655.167486051283,2355.157633622669,55256.77748938151,0.1113632766022927,0.038389696746734536,0.026334015520083822,-0.0290000031366658,0.002058293878710973,0.03799952414050641,0.2865241914349031,0.07380782528356733,-0.006724898965328229,0.015742390603556113,-0.03599231074636517,0.0051419200180729974,18998.884189732067,4894.059094403072,-445.9154949188566,4801.703236518599,-10978.281466447972,1568.3751352938457,3.8820299925392217
1.75,7.997440167415405,29661.962346240733,2359.2448493875445,55396.428679472694,0.11251374487165289,0.03872621643359137,0.027032287133691314,-0.029501822808731797,0.002528510975317274,0.03822259951547867,0.28838415645030824,0.07399256584553567,-0.006743152970267892,0.01612350006573655,-0.03675061165673935,0.005304558825613456,19170.542826107274,4918.708676008084,-448.25591111066365,4930.377454431865,-11237.906559383966,1622.071952918581,3.8974747416156523
1.8,8.011263300108975,29668.737182119683,2363.3226735321477,55535.8125153113,0.1136580643320293,0.03905924110570062,0.027724064370339346,-0.029996554809770787,0.0029982672577970036,0.038441460887570715,0.2902335061854914,0.0741762578316575,-0.006760819345824382,0.0165002712327814,-0.03750405710638803,0.005466658419711295,19342.024302214668,4943.326497631587,-450.56111476751096,5058.284952388137,-11497.156927811893,1675.846150294486,3.9127547637166367
1.85,8.025053712125851,29675.491788749874,2367.390845077126,55674.91795776744,0.114796070203397,0.03938874070781167,0.028409181033874218,-0.03048408028279916,0.003467477114367919,0.03865608412753797,0.29207195482159926,0.07435888123286975,-0.006777900387112987,0.016872609591044016,-0.038252539067621466,0.005628192934673059,19513.298546948754,4967.909534485675,-452.83085757412283,5185.383974025781,-11755.982497948973,1729.687472984017,3.9278691392211424
1.9000000000000001,8.038810520884368,29682.22596180496,2371.449103660889,55813.73397655995,0.11592759861487698,0.03971468550280906,0.029087472528312924,-0.030964282102166996,0.0039360550328323895,0.038866445573385595,0.2938992181658887,0.07454041616604255,-0.006794398437550715,0.01724042173413845,-0.03899595017645818,0.005789136568873508,19684.33533435584,4992.454750072281,-455.06489630905224,5311.632763967239,-12014.332933002366,1783.5855728181268,3.9428169747699466
1.9500000000000002,8.052532845953461,29688.93949757673,2375.497189556271,55952.24955134157,0.11705248662833324,0.04003704607439629,0.029758775897386475,-0.03143704490169695,0.00440391561616175,0.03907252203297729,0.2957150136937778,0.07472084287639663,-0.006810315887936774,0.01760361538573666,-0.03973418374828652,0.00594946358912961,19855.104290727173,5016.959096768072,-457.2629929023657,5436.989583498526,-12272.157645712494,1837.5300103245131,3.957597402681206
2.0,8.066219809109011,29695.632192981233,2379.534843687158,56090.45367278698,0.11817057226183565,0.04035579332975059,0.030422929863689396,-0.03190225510240042,0.004870973598059685,0.039274290786592114,0.29751906059065264,0.07490014173990475,-0.006825655175529734,0.01796209942209049,-0.040467133793434605,0.006109148335065589,20025.57490179732,5041.419516416766,-459.424914491363,5561.412726364196,-12529.405811077359,1891.5102572083538,3.9722095803744337
2.0500000000000003,8.079870534390048,29702.30384556494,2383.561807645064,56228.335343681734,0.11928169451298505,0.04067089850214849,0.031079774867425847,-0.032359800939764316,0.0053371438585017705,0.039471729589429363,0.2993110797934236,0.07507829326567686,-0.006840418783121569,0.018315783894272776,-0.04119469503264643,0.0062681652234682795,20195.716520044924,5065.8329409285125,-461.5504334742947,5684.860534670451,-12786.026379253415,1945.5156988847752,3.9866526898029266
2.1,8.093484148154813,29708.954253510874,2387.5778237056697,56365.88358001277,0.12038569338209724,0.04098233315356208,0.031729153104743085,-0.03280957249060199,0.005802341439248346,0.039664816674061014,0.3010907940318246,0.07525527809832827,-0.006854609238108824,0.01866458005013236,-0.04191676291246159,0.006426488752632019,20365.498372093713,5090.196292886227,-463.63932756206634,5807.291414889252,-13041.968088628932,1999.5356370623304,4.000925936894691
2.15,8.107059779136671,29715.583215644703,2391.582634845318,56503.087412060115,0.12148240989524284,0.04129006917722545,0.03237090856564307,-0.03325146169946176,0.00626648155932795,0.03985353075283155,0.3028579278694503,0.07543107702033128,-0.006868229111561064,0.019008400355957612,-0.042633233620496626,0.006584093506692321,20534.889566211536,5114.50648615874,-465.6913798279089,5928.663853956114,-13297.179479065708,2053.559292376731,4.015028551001859
2.2,8.120596558499873,29722.190531440825,2395.5759847574627,56639.93588548974,0.12257168612713899,0.04159407880017134,0.03300488707146316,-0.03368536240458666,0.006729479630488397,0.04003785102020495,0.30461220774452413,0.07560567095434918,-0.006881281017286885,0.019347158517843233,-0.0433440041006254,0.0067409541599475434,20703.859099904792,5138.7604265205255,-467.70637875500006,6048.9364354541,-13551.608905304642,2107.5758070740267,4.028959784358629
2.25,8.134093619895161,29728.77600102844,2399.5576178690726,56776.41806244661,0.12365336522389063,0.041894334585737616,0.033630936311916736,-0.03411117036341931,0.007191251272612743,0.040217757155058445,0.306353362010392,0.0757790409655528,-0.006893767610897624,0.019680769502755248,-0.044048972068056566,0.006897045481167827,20872.37586760568,5162.955012277792,-469.6841182820127,6168.0678558765285,-13805.20455053071,2161.5742477423996,4.042718911547751
2.3000000000000003,8.147550099515215,29735.3394251976,2403.5272793569884,56912.52302264894,0.12472729142557691,0.042190809436043454,0.03424890588168505,-0.03452878327764577,0.007651712329097361,0.0403932293229229,0.3080811209757357,0.07595116826391919,-0.006905691588869059,0.020009149559289,-0.04474803602430542,0.007052342337890528,21040.408668450058,5187.08713490086,-471.62439784658807,6286.016940960768,-14057.914440092862,2215.543608091756,4.056305228975529
2.35,8.160965136149926,29741.88060540522,2407.484715164228,57048.239864482246,0.12579331008868055,0.04248347659443483,0.03485864731655139,-0.03493810081777206,0.00811077888218921,0.04056424817816953,0.30979521694450074,0.07612203420651195,-0.00691705568760124,0.020332216238115187,-0.04544109527205846,0.007206819700701373,21207.92621414303,5211.153679662499,-473.527022426708,6402.742662085408,-14309.686455374198,2269.472811780198,4.069718054355397
2.4000000000000004,8.174337871241535,29748.399343781093,2411.429672016253,57183.55770609437,0.1268512677083561,0.04277230964789935,0.035460014129068865,-0.03533902464722797,0.00856836726827965,0.040730794866142776,0.31149538425553047,0.07629162029974337,-0.006927862682476714,0.020649888412108977,-0.04612804992992788,0.00736045264750063,21374.897136909796,5235.151526282179,-475.3918025799658,6518.2041527231,-14560.468347807733,2323.3507152865263,4.082956726199958
2.45,8.187667448939557,29754.895443133893,2415.3618974371693,57318.465686488904,0.12790101194053452,0.04305728252944999,0.036052861843753316,-0.035731458445991925,0.00902439409315187,0.040892851025239,0.31318135932190444,0.07645990820161741,-0.00693811538691733,0.020962086296157385,-0.0468088009470942,0.007513216367753485,21541.28999752864,5259.077549575799,-477.21855448070596,6632.360724941009,-14810.207753032626,2377.1661108277517,4.096020603321618
2.5,8.200953016155571,29761.3687069571,2419.2811397658934,57452.952966620505,0.1289423916238603,0.04333836952047762,0.03663704803179286,-0.03611530793373135,0.009478776247179277,0.04105039878893079,0.3148528806699723,0.0766268797239539,-0.006947816651439836,0.021268731466640024,-0.047483250117834525,0.007665086166723926,21707.073293444275,5282.928620111053,-479.0070999550508,6745.17188594128,-15058.852205186678,2430.907729320795,4.108909064341659
2.5500000000000003,8.214193722617809,29767.81893943498,2423.1871481722537,57587.008730487694,0.12997525680145852,0.043615545253072076,0.037212432345265764,-0.03649048089245313,0.009931430920471994,0.041203420787736804,0.31650968897807835,0.07679251683459326,-0.006956969362710494,0.02156974688057866,-0.04815130009593454,0.007816037469691367,21872.21546695745,5306.701604867813,-480.7572665137735,6856.597354633136,-15306.34915132921,2484.564243387245,4.121621507207823
2.6,8.227388720925576,29774.245945448492,2427.079672673045,57720.622186226385,0.1309994587425284,0.04388878471231163,0.03777887655085827,-0.036856887188658496,0.010382275617968707,0.04135190015113666,0.3181515271149724,0.07695680165958146,-0.00696557644259891,0.021865056894450775,-0.04881285440898174,0.00796604582614926,22036.684913489134,5330.393367903673,-482.4688873830366,6966.597078228854,-15552.645965990045,2538.1242704002852,4.134157348720341
2.6500000000000004,8.240537166603486,29780.649530581195,2430.9584641480283,57853.78256720203,0.13201484996376028,0.044158063238520555,0.038336244563074565,-0.03721443879499718,0.010831228174471203,0.041495820509430945,0.3197781401778992,0.07711971648533524,-0.006973640847231291,0.02215458728266275,-0.049467817472538166,0.008115086913984979,22200.44998991572,5354.000771024221,-484.1418015329732,7075.13124885533,-15797.689965839038,2591.5763755726966,4.146516024066386
2.7,8.253638218155503,29787.029501125126,2434.8232743558733,57986.47913310071,0.1330212842505728,0.044423356529494626,0.03888440247693064,-0.03756304981141558,0.011278206769618711,0.04163516599554593,0.3213892755303628,0.0772812437607869,-0.006981165566043349,0.022438265255678148,-0.050116094604189976,0.00826313654364022,22363.479022972482,5377.520674457926,-485.7758537041126,7182.160320173104,-16041.428424470962,2644.9090750848904,4.158696986362921
2.75,8.266691037118798,29793.385664086665,2438.6738559500454,58118.70117101919,0.13401861667816783,0.0446846406426944,0.03942321860012432,-0.03790263648579381,0.011723129942799459,0.04176992124678292,0.3229846828395598,0.07744136609950884,-0.00698815362083304,0.022716019477796615,-0.05075759203747249,0.008410170662251188,22525.740317722542,5400.949937535421,-487.3708944316454,7287.6450239946225,-16283.808587300744,2698.1108392519045,4.170699706207897
2.8000000000000003,8.279694788117416,29799.717827192362,2442.509962494638,58250.437996553555,0.13500670363239922,0.04494189199740602,0.03995256348467369,-0.03823311723406674,0.012165916607996648,0.041900071406511974,0.3245641141134752,0.07760006628181693,-0.006994608064813384,0.02298778008457927,-0.05139221693566763,0.008556165357767851,22687.202166087984,5424.285419372908,-488.9267800675266,7391.546386893468,-16524.777686563284,2751.1700957282546,4.18252367123978
2.85,8.292648638915729,29806.02579889477,2446.33134848014,58381.6789548857,0.13598540283045288,0.04519508737686933,0.04047230995801636,-0.03855441265982422,0.012606486068566127,0.0420256021258098,0.3261273237376366,0.0777573272568532,-0.0070005319816655275,0.02325347869991625,-0.05201987740547257,0.008701096863051512,22847.832855440127,5447.523979559504,-490.4433728004079,7493.825746796163,-16764.28295641264,2804.0752327494806,4.194168385705324
2.9000000000000004,8.305551760471708,29812.309388378228,2450.1377693391537,58512.41342186877,0.13695457334133554,0.045444203930373184,0.04098233315356208,-0.0388664455733856,0.013044758031943172,0.04214649956504175,0.32767406851152087,0.07791313214464704,-0.007005928484592286,0.023513048452732357,-0.05264048251053717,0.008844941559950007,23007.60067724623,5470.662478848337,-491.9205406734125,7594.444769548384,-17002.271648115282,2856.814602409311,4.205633370035598
2.95,8.318403326989978,29818.568405564627,2453.928981462044,58642.630805110464,0.13791407560616828,0.0456892191753177,0.04148251054069132,-0.039169141010344286,0.013480652624275542,0.042262750395387606,0.32920410768460845,0.0780674642381547,-0.007010800715372387,0.023766423993326687,-0.05325394228486789,0.008987675983349765,23166.473935769183,5493.697779851123,-493.35815759974463,7693.365465447034,-17238.69104533149,2909.3765239712116,4.2169181604301835
3.0,8.331202515974669,29824.802661119178,2457.7047422125274,58772.32054505326,0.13886377145828302,0.045930110999243365,0.04197272195419264,-0.0394624262495775,0.013914090404980305,0.042374341800311084,0.33071720299207946,0.0782203070052771,-0.0070151518434155785,0.02401354150934238,-0.05386016774609677,0.009129276825204083,23324.42095681673,5516.626747735945,-494.75610337613,7790.550205729749,-17473.48847947934,2961.749287213121,4.22802230844949
3.0500000000000003,8.343948508282054,29831.011966456124,2461.464809943206,58901.47211605364,0.13980352414311817,0.04616685766182655,0.04245284962313187,-0.03974623083071722,0.014344992381221645,0.04248126147697281,0.3322131186901464,0.07838104512029667,-0.007018985064818831,0.02425433874136257,-0.05445907090861285,0.009269720938536815,23481.410096537853,5540.110732296356,-496.114263694108,7885.961739013632,-17706.61134517596,3013.9211558042325,4.2384369611336075
3.1,8.356640488172976,29837.196133744455,2465.208944011028,59030.07502745771,0.1407331983379109,0.04639943779684166,0.04292277819914593,-0.0400204865710779,0.01477328002230708,0.04258349763758674,0.3336916215910195,0.07858018701012237,-0.007022303601423861,0.024488754998128772,-0.05505056479655443,0.00940898534142084,23637.409750262286,5566.313201855017,-497.43253014916434,7979.563207674512,-17938.007115749802,3065.8803707124966,4.246510911815911
3.1500000000000004,8.369277643365054,29843.354975913582,2468.9369047926907,59158.118824674544,0.1416526601711837,0.04662783041408936,0.043382394784154794,-0.04028512758203708,0.015198875273999489,0.04268103901071973,0.3351524810974982,0.07877724919920531,-0.007025110699876132,0.02471673117137809,-0.05563456345666018,0.009547047220930591,23792.38836138034,5592.376642569102,-498.7108002477177,8071.318164158451,-18167.623358818553,3117.615153641661,4.254432396465033
3.2,8.381859165084668,29849.488306658997,2472.648453699977,59285.5930902465,0.14256177724202138,0.046852014901290984,0.04383158895748462,-0.040540090284864806,0.015621700572742253,0.042773874842534185,0.3365954692371841,0.07897220885002694,-0.007027409630685573,0.02493820975029553,-0.056210981970976875,0.009683883937067903,23946.314430259536,5618.297087184793,-499.9489774119652,8161.190587216916,-18395.407751926534,3169.113710496524,4.262201528089451
3.25,8.394384248118726,29855.595940447914,2476.343353195024,59412.4874449165,0.1434604186391367,0.047071971025948726,0.044270252802395896,-0.040785313425998074,0.01604167885979502,0.042861994897973675,0.33802036069631125,0.07916504338880154,-0.007029203687289219,0.025153134835578055,-0.05677973646942219,0.009819473026660551,24099.156523194888,5644.07057569613,-501.1469709825978,8249.144898057282,-18621.30809823598,3220.3642348751573,4.269818422712147
3.3000000000000003,8.406852090866186,29861.677692524878,2480.021366805525,59538.79154869175,0.1443484549597213,0.04728767893717162,0.04469828093200985,-0.04102073809175674,0.016458733595277435,0.04294538946189138,0.33942693285318837,0.07935573050835765,-0.007030496185115922,0.025361452153106916,-0.05734074414220045,0.009953792207232727,24250.883281389328,5669.693156317517,-502.3046962193873,8335.145976400054,-18845.272342265955,3271.354911586727,4.277283199068281
3.35,8.419261895389369,29867.733378917346,2483.6822591398636,59664.49510190447,0.14522575832807952,0.04749911916746709,0.04511557051462711,-0.041246307722497245,0.01687278877211832,0.04302404934012105,0.3408149658112473,0.07954424817098407,-0.007031290460653427,0.025563109067224914,-0.0578939232520694,0.010086819380846813,24401.463429961084,5695.160886458823,-503.4220742996688,8419.159176434514,-19067.248585673264,3322.0739201936594,4.284595978311966
3.4000000000000004,8.431612867465022,29873.762816441274,2487.3257959021817,59789.58784626865,0.14609220241404233,0.04770627263449788,0.045522021298432636,-0.041461968126200795,0.017283768929907767,0.043097965860490826,0.34218424243169415,0.07973057461124056,-0.0070315898705179194,0.025758054593615534,-0.058439193146456354,0.010218532637915764,24550.8657869744,5720.469833702693,-504.4990323147167,8501.150342664256,-19287.18510306902,3372.5094385767457,4.291756883731933
3.45,8.443904216635145,29879.76582270663,2490.951743907368,59914.05956593296,0.1469476624511585,0.047909120642804184,0.04591753563558062,-0.04166766749149271,0.01769159916864957,0.04316713087377919,0.3435345483657582,0.07991468833873226,-0.007031397790526291,0.0259462394117806,-0.05897647426942162,0.010348910260985389,24699.059272490296,5745.616076783727,-505.53550326403393,8581.085825634178,-19505.03035786495,3422.649646521837,4.298766040475907
3.5,8.45613515625759,29885.74221612294,2494.559871095989,60037.90008852994,0.14779201525466099,0.04810764488549095,0.04630201850565398,-0.041863356400089875,0.018096205162411547,0.043231536754613505,0.344865672086533,0.08009656814084828,-0.007030717614771332,0.02612761587711364,-0.05950568817346766,0.010477930728485916,24846.012917633994,5770.595706569255,-506.5314260475704,8658.932497530635,-19720.733018143434,3472.48272932679,4.305623575283442
3.5500000000000003,8.468304903556394,29891.691815904753,2498.149946549136,60161.09928622099,0.1486251392392051,0.04830182744588002,0.046675377538492505,-0.04204898783867328,0.018497513172871256,0.04329117640231061,0.346177404920406,0.08027619308546306,-0.0070295527546999905,0.026302138032565966,-0.06002675753119183,0.010605572718452128,24991.695873675442,5795.404827041268,-507.48674545588125,8734.657767646337,-19934.241972544973,3521.9968814272333,4.312329616227081
3.6,8.480412679671886,29897.61444207713,2501.7217405032065,60283.647076736605,0.14944691443637667,0.04849165079912711,0.047037523036384435,-0.04222451721018267,0.01889545006275457,0.04334604324165979,0.3474695410780719,0.08045354252360111,-0.007027906638194968,0.02646976161990265,-0.06053960614678133,0.010731815112211442,25136.07742111934,5820.039556279187,-508.40141215823974,8808.229597701566,-20145.50634616694,3571.180310039733,4.318884292461596
3.6500000000000004,8.492457709710525,29903.509915481085,2505.2750243646046,60405.533424412744,0.15025722251196733,0.04867709781380344,0.04738836799561578,-0.042389902344530835,0.01928994330916476,0.04339613122364757,0.3487418776851244,0.08062859609206412,-0.007025782708659791,0.026630444090545578,-0.06104415896734833,0.01085663699803925,25279.126978801487,5844.496027443184,-509.27538268873207,8879.6165170136,-20354.475516467628,3620.0212388210025,4.325287733981137
3.7,8.504439222794499,29909.37805777899,2508.8095707243774,60526.74834122239,0.15105594678301443,0.04885815175344181,0.04772782812737265,-0.04254510350873474,0.019680921016799587,0.04344143482612467,0.349994214812224,0.08080133371602041,-0.007023184424107563,0.02678414461600117,-0.06154034209410361,0.01098001767478091,25420.81411298785,5868.770389757634,-510.1086194303416,8948.787637506002,-20561.09912916924,3668.507911541681,4.33154007138413
3.75,8.516356452111063,29915.218691459995,2512.3251533727635,60647.2818878018,0.1518429722346031,0.04903479627804705,0.048055821877991185,-0.04269008341646121,0.02006831193105402,0.04348194905441481,0.3512263555048347,0.08097173561155618,-0.007020115256253607,0.02693082409787005,-0.06202808279336709,0.011101936655439692,25561.1085464724,5892.858809494329,-510.9010905970446,9015.712668549504,-20765.327114153417,3716.628595773197,4.337641435645701
3.8000000000000003,8.528208634961608,29921.031639845372,2515.8215473136743,60767.124174472345,0.1526181855364283,0.049207015445570726,0.04837227044855044,-0.04282480723698476,0.020452045451006203,0.04351766944186536,0.35243810581252755,0.0811397822881884,-0.007016578689612172,0.027070445177436314,-0.06250730950741346,0.0112223736707301,25699.98016767082,5916.757470955195,-511.6527702139431,9080.361931626461,-20967.10970134341,3764.3715865863487,4.34359195789748
3.85,8.539995012810477,29926.816727093876,2519.2985287790907,60886.265362257174,0.1533814750591141,0.04937479371334986,0.04867709781380344,-0.0429492426035555,0.020832051642284258,0.04354859205033978,0.3536292748178456,0.08130545455133874,-0.007012578220597392,0.027202972244834055,-0.06297795186515125,0.01134130867259589,25837.3990397063,5940.4625774541,-512.3636380954537,9142.706374810776,-21166.397436566476,3811.725210260079,4.3493917692146145
3.9000000000000004,8.55171483133351,29932.573778207065,2522.755875243385,61004.69566389202,0.15413273089028823,0.04953811593950966,0.048970230740441885,-0.04306335962117518,0.021208261249811653,0.0435747134706518,0.3547996746647268,0.08146873350476858,-0.00700811735662869,0.027328371447789032,-0.06343994069263398,0.011458721837692188,25973.33540948347,5963.970352297356,-513.0336798215671,9202.717587055155,-21363.141197390007,3858.677827998941,4.355041000409801
3.95,8.563367340466321,29938.30261903457,2526.193365437565,61122.40534483147,0.15487184485040914,0.04969696738433007,0.04925159880469012,-0.04316713087377919,0.02158060571042872,0.0435960308229413,0.35594912058647965,0.08162960055297444,-0.007003199615240828,0.027446610699933163,-0.06389320802340116,0.011574593570831074,26107.759716747725,5987.277039762699,-513.6628867122212,9260.36781227793,-21557.292208925563,3905.2178396578547,4.360539781834195
4.0,8.574951794452305,29944.003076279405,2529.61077936343,61239.38472424875,0.15559871050834376,0.04985133371157601,0.04952113440922408,-0.043260531430823236,0.021949017165388125,0.04361254175699179,0.3570774309333089,0.08178803740354364,-0.00699782852319875,0.02755765968869001,-0.06433768710864839,0.011688904508390035,26240.642603125518,6010.3789060762265,-514.2512557997877,9315.629963241357,-21748.80205959401,3951.3336874725524,4.365888243185033
4.05,8.58646745189036,29949.674977503164,2533.0078983076564,61355.62417603027,0.15631322319669336,0.050001200989791245,0.049778772799411224,-0.04334353885327275,0.022313428472721934,0.043624244452489504,0.3581844271993862,0.08194402606946984,-0.00699200761561745,0.027661489882729255,-0.06477331242722419,0.011801635521682653,26371.95492114266,6033.272240387062,-514.798789799719,9368.477635213774,-21937.622716845897,3997.0138597942905,4.371086513319806
4.1000000000000005,8.597913575782343,29955.318151131272,2536.384504855791,61471.114129763955,0.15701528002686552,0.050146555693555625,0.050024452078867555,-0.043416133198993734,0.02267377321947805,0.043631137619224124,0.3592699340494629,0.08209754887142819,-0.006985740435086988,0.02775807453898839,-0.06520001969545265,0.011912767720290969,26501.667743216763,6055.953355739323,-515.305497079367,9418.885119407749,-22123.70654283039,4042.2468948272644,4.37613472007685
4.15,8.609289433580226,29960.932426458156,2539.740382906167,61585.84507172213,0.15770477990388984,0.050287384704705784,0.0502581132243279,-0.04347829702754382,0.02302998573382376,0.043633220497230986,0.36033377934501926,0.08224858844000975,-0.006979030530802902,0.02784738870925992,-0.06561774587677999,0.01202228245535887,26629.752370620557,6078.418590041131,-515.7713916250154,9466.827416186788,-22307.00631000699,4087.0213843672636,4.381032990102177
4.2,8.620594297232998,29966.517633652416,2543.0753176837343,61699.807545837066,0.15838162354097543,0.05042367531351907,0.05047970009982593,-0.043530015404362195,0.023382001097014295,0.04363049285687492,0.3613757941699483,0.08239712771791496,-0.006971881457702146,0.02792940924634244,-0.06602642919124366,0.012130161322846006,26756.180342411808,6100.6643070301325,-516.1964930071349,9512.280248032743,-22487.475216692914,4131.325977539942,4.3857814486824305
4.25,8.631827443233243,29972.07360376196,2546.389095753807,61812.992154671636,0.15904571347380814,0.050555415219860546,0.050689159470180656,-0.0435712759043576,0.023729755155224058,0.0436229549988755,0.36239581285577005,0.0825431499621057,-0.006964296775604733,0.02800411480975417,-0.06642600912476274,0.01223638616674152,26880.923444327473,6122.686897235428,-516.5808263439123,9555.220072266897,-22665.066902540977,4175.14938453732,4.390380219583823
4.3,8.64298815266345,29977.600168719116,2549.681505035718,61925.389560382086,0.15969695407458523,0.05068259253429308,0.05088644101378584,-0.043602068614893366,0.02407318453123849,0.04361060775427393,0.3633936730063712,0.08268663874591571,-0.006956280048361289,0.02807148587100749,-0.0668164264382479,0.012340939082237178,27003.95371763717,6144.482778935297,-516.9244222630637,9595.62409351697,-22839.735463940546,4218.480380350817,4.394829424896909
4.3500000000000005,8.654075711242026,29983.097161345715,2552.9523348163975,62036.99048567503,0.1603352515657855,0.05080519577915036,0.05107149733469956,-0.0436223861381689,0.02441222663600441,0.043593452484341426,0.3643692155222685,0.08282757796111928,-0.006947834843006668,0.028131504718443247,-0.06719762317652948,0.01244380241885919,27125.243467953413,6166.048399110556,-517.2273168619753,9633.470275923137,-23011.435469336087,4261.307808499419,4.399129184887065
4.4,8.665089409369006,29988.56441535815,2556.201375763857,62147.78571475779,0.16096051403367317,0.05092321388957275,0.0512442839740308,-0.04363222359299696,0.024746819680036624,0.04357149108042914,0.3653222846243905,0.08296595181995757,-0.006938964728919798,0.028184155461623617,-0.0675695426771027,0.012544958783558251,27244.765273994846,6187.38023439317,-517.489551666204,9668.737355075833,-23180.12197445699,4303.6205847513775,4.403279617850557
4.45,8.676028542171471,29994.001765372403,2559.428419940584,62257.76609428094,0.16157265144153338,0.0510366362145059,0.05140475942062059,-0.04363157861597635,0.025076902684679006,0.04354472596375957,0.36625272787737656,0.08310174485712268,-0.006929673276989951,0.02822942403528249,-0.0679321295786884,0.01264439104375725,27362.491996298442,6208.47479200963,-517.7111735863556,9701.40484967819,-23345.750537451935,4345.4077008378645,4.4072808399760675
4.5,8.686892409548651,29999.40904690905,2562.6332608168523,62366.92253427463,0.16217157564263707,0.051145452517661984,0.05155288512101476,-0.04362045136205969,0.025402415493217586,0.043513160085159756,0.3671603962123867,0.08323494193169884,-0.006919964058789574,0.02826729820283236,-0.06828532982960768,0.01274208233035601,27478.3967858778,6229.32861071893,-517.8922348733928,9731.453072926457,-23508.277233922145,4386.658228157098,4.41113296521156
4.55,8.697680316216747,30004.786096398242,2565.81569328394,62475.246009077695,0.1627572003929343,0.05124965297844347,0.051688625488726256,-0.04359884450451622,0.025723298781844,0.043476796924735814,0.36804514394942184,0.08336552822906076,-0.006909840645753864,0.028297767559426965,-0.06862909069596991,0.012838016040692658,27592.453092823853,6249.938261744739,-518.0327930723963,9758.863143601595,-23667.658671847337,4427.3613214673915,4.414836105136359
4.6000000000000005,8.708391571753411,30010.132751184636,2568.9755136672566,62582.72755825906,0.1633294413634729,0.05134922819282953,0.05181194791278466,-0.04356676323428952,0.026039494070467083,0.04343564049148936,0.3689068288191492,0.0834934892627287,-0.006899306608367278,0.02832082353457886,-0.06896336076967195,0.012932175841460985,27704.63467484415,6270.300349701333,-518.1329109748148,9783.61699686524,-23823.85200639771,4467.50622256752,4.418390368838357
4.65,8.719025490641949,30015.44884953233,2572.112519739375,62689.358287531686,0.16388821615254204,0.051444169174224626,0.05192282276557076,-0.043524215258750464,0.026350943733370668,0.04338969532287547,0.3697453119842311,0.08361881087617998,-0.0068883655153570734,0.028336459394331246,-0.06928808997620811,0.013024545671583329,27814.915605737577,6290.411513513038,-518.1926565692369,9805.697394753712,-23976.81495462638,4507.082263962904,4.421795862796207
4.7,8.729581392315175,30020.734230629765,2575.2265107329767,62795.12936965968,0.16443344429753756,0.05153446735426965,0.052021223409934474,-0.043471210799845526,0.02665759100971575,0.04333896648430243,0.3705604580601527,0.08374147924461689,-0.006877020932894119,0.02834467024298363,-0.06960322958228901,0.013115109745038454,27923.270283801165,6310.268427326866,-518.2121029907327,9825.087936363718,-24126.505810036106,4546.078872516096,4.4250526907664245
4.75,8.740058601198992,30025.988734594557,2578.317287353703,62900.03204535696,0.1649650472865488,0.05162011458361513,0.05210712620559431,-0.043407762591640996,0.026959380013885,0.04328345956857333,0.37135213513554666,0.0838614808766907,-0.006865276423801074,0.02834545302437079,-0.06990873220326865,0.013203852553643916,28029.673440165134,6329.86780141792,-518.1913284687854,9841.773067723418,-24272.883457014035,4584.485573079965,4.428160953675265
4.800000000000001,8.750456446755605,30031.212202478368,2581.3846517929032,63004.057624178364,0.16548294856966395,0.05170110313265676,0.05218051051481679,-0.04333388587726371,0.027256255745667715,0.0432231806952694,0.37212021479201185,0.08397880261618125,-0.006853135546768122,0.028338806522694833,-0.07020455181037816,0.013290758869792418,28134.100147053054,6349.206383087261,-518.1304162738606,9855.738091342813,-24415.907385128558,4622.291992112066,4.431120749515316
4.8500000000000005,8.760774263526447,30036.404476271684,2584.4284077403017,63107.197485403194,0.16598707356999307,0.051777425692232946,0.052241358707374605,-0.04324959840523897,0.027548164100283518,0.04315813651007536,0.37286457212342194,0.08409343164363224,-0.0068406018555764135,0.028324731362909986,-0.07049064373776522,0.013375813749141669,28236.52582596378,6368.280957551945,-518.0294546626516,9866.96917543765,-24555.537703282567,4659.487861268702,4.433932173246686
4.9,8.771011391174763,30041.565398908628,2587.448360396555,63209.44307890988,0.16647734969440733,0.0518490753742845,0.052289656164782164,-0.04315492042522649,0.027835051878242742,0.04308833418404674,0.3735850857547233,0.08420535547794206,-0.0068276788983293625,0.028303230010660187,-0.07076696468933832,0.013459002533257252,28336.926255771417,6387.08834882682,-517.8885368220288,9875.453362820816,-24691.735153716716,4696.063020977051,4.436595316702695
4.95,8.781167174527885,30046.694814271676,2590.444316485726,63310.78592604368,0.166953706343992,0.05191604571247625,0.052325391283807636,-0.043049874683155576,0.028116866795041943,0.04301378141281929,0.3742816378602163,0.08431456197790947,-0.006814370216691951,0.028274306771769397,-0.0710334727454143,0.013540310852208056,28435.277580740592,6405.625420597882,-517.7077608117504,9881.178579455982,-24824.461125857473,4732.007423983991,4.439110268499984
5.0,8.791240963619142,30051.79256719641,2593.416084267647,63411.21762047498,0.16741607492421265,0.05197833066278064,0.05234855547926057,-0.04293448641576051,0.028393557490692552,0.04293448641576051,0.37495411418132085,0.08442103934373446,-0.006800679345138186,0.028237967791284718,-0.07129012736916826,0.013619724627113739,28531.55631845299,6423.889077086671,-517.4872295059521,9884.133642667612,-24953.677670003344,4767.311138879901,4.441477113952981
5.050000000000001,8.801232113729467,30056.85850347619,2596.363473550193,63510.729829049924,0.1678643888547927,0.05203592460402316,0.05235914318605441,-0.0428087833445175,0.02866507353908117,0.042850457935063514,0.37560240404382156,0.08452477611847367,-0.006786609810206864,0.028194221052072598,-0.07153688941288534,0.013697230072643885,28625.73936764256,6441.876263905575,-517.2270505334735,9884.308269002391,-25079.34751084435,4801.9643535961295,4.443695934992606
5.1000000000000005,8.81113998542867,30061.89246986683,2599.286295701457,63609.31429263241,0.16829858357930086,0.05208882233838972,0.05235715186054354,-0.04267279566898479,0.028931365457159484,0.04276170523478319,0.37622640037458904,0.0846257611894505,-0.0067721651297657955,0.028143076372968458,-0.07177372112401255,0.013772813699468232,28717.804015935588,6459.583968903613,-516.9273362170538,9881.693081736787,-25201.43406080843,4835.95737887448,4.445766810089144
5.15,8.820963944616336,30066.894314091234,2602.184363661819,63706.962826937124,0.16871859657444707,0.052137019091895685,0.05234258198113433,-0.04252655605954734,0.029192384713962505,0.042668238099814834,0.37682599971777886,0.08472398378961962,-0.006757348812284597,0.028084545406480116,-0.07200058615101029,0.013846462316657733,28807.72794749275,6477.009223002385,-516.588203511435,9876.279618025752,-25319.901433229334,4869.280651707288,4.447689814179247
5.2,8.830703362562438,30071.86388484399,2605.0574919559194,63803.667323354726,0.1691243673590858,0.052180510514816786,0.05231543704817023,-0.04237009964956789,0.02944808373945315,0.04257006683481541,0.3774011022505,0.08481943349888539,-0.006742164356116237,0.028018641636045616,-0.07221744954900247,0.013918163034035834,28895.489250549937,6494.1491010219515,-516.2097739404246,9868.060335687995,-25434.7144553307,4901.924738746613,4.44946501859694
5.25,8.840357615947546,30076.80103179597,2607.9054967045263,63899.41974976698,0.1695158375029252,0.0522192926820816,0.05227572358309082,-0.042203464026946406,0.02969841593319179,0.04246720226306743,0.37795161179795667,0.08491210024537459,-0.006726615248787427,0.02794538037284613,-0.0724242777852242,0.013987903264479658,28981.066424854336,6511.000722496179,-515.7921735329412,9857.028619622897,-25545.83868102014,4933.88033968099,4.451092491008604
5.300000000000001,8.849926086902743,30081.705605598847,2610.728195636309,63994.21215135457,0.1698929506349411,0.05225336209362588,0.05222345112686506,-0.042026689225089696,0.029943335672829,0.04235965572528575,0.37847743584805643,0.08500197430666284,-0.006710704966298048,0.027864778752174548,-0.07262103874426637,0.014055670726170645,29064.438388993458,6527.561252477487,-515.3355327581113,9843.178787855028,-25653.240403488817,4965.138290578418,4.452572295351846
5.3500000000000005,8.859408163049151,30086.577457889638,2613.5254080994996,64088.03665139429,0.17025565245149407,0.05228271567470834,0.05215863223769913,-0.04183981771329365,0.030182798322420143,0.042247439078367234,0.3789784855654848,0.08508904631095467,-0.006694436972429689,0.02777685572936088,-0.07280770173311618,0.014121453444794237,29145.58448761283,6543.8279023303785,-514.8399864594275,9826.506097201616,-25756.886667610044,4995.689567193939,4.453904491778206
5.4,8.868803237537136,30091.416441295187,2616.296955073455,64180.88545204833,0.17060389072414928,0.052307350776188206,0.05208128248801938,-0.0416428943865401,0.030416760240560146,0.04213056469408352,0.3794546758052444,0.08517330723821716,-0.006677814718063464,0.027681632075255164,-0.0729842374859928,0.014185239755688223,29224.48449852063,6559.797930513761,-514.3056737880403,9807.006748559294,-25856.74528213264,5025.525288240566,4.455089136599636
5.45,8.878110709085133,30096.22240943661,2619.0426591801142,64272.75083514389,0.1709376153071972,0.05232726517476432,0.05199142046073111,-0.04143596655471112,0.030645178788337016,0.042009045457717095,0.37990592512565585,0.08525474842126682,-0.006660841640507246,0.027579130371269214,-0.0731506181689774,0.014247018305939343,29301.11863967533,6575.468643351551,-513.7327381352079,9784.677891805995,-25952.784831663117,5054.63671862198,4.4561262822387055
5.5,8.887329982018144,30100.995216933745,2621.7623446953526,64363.62516294358,0.1712567781448746,0.05234245707317569,0.051889067744754144,-0.041219083931223,0.030868012337102648,0.041882894766640685,0.3803321558008182,0.08533336154681001,-0.006643521162832385,0.027469375003978176,-0.07330681738443696,0.014306778056427771,29375.46757605374,6590.837395791386,-513.121327063952,9759.517630314433,-26044.974688431812,5083.015272625656,4.457015977182444
5.550000000000001,8.896460466305848,30105.73471940952,2624.455837560225,64453.50087890638,0.17156133327828438,0.052352925100363816,0.0517742489298362,-0.040992298621082814,0.03108522027605958,0.04175212652884019,0.38073329383252874,0.08540913865643596,-0.006625856693220124,0.02735239215928336,-0.07345281017524069,0.01436450828381915,29447.512426396574,6605.901592151078,-512.4715922399652,9731.525025073663,-26133.285023837867,5110.652517074999,4.457758265939833
5.6000000000000005,8.905501577600365,30110.440773494352,2627.1229653921077,64542.37050843929,0.17185123685201348,0.052358668311596364,0.05164699160064527,-0.04075566510837051,0.03129676301966213,0.041616755161381386,0.38110926896165837,0.08548207214756304,-0.006607851624317754,0.02722820981613766,-0.0735885730287689,0.014420198582503718,29517.23476982856,6620.658686852583,-511.78368936181073,9700.700098415437,-26217.686819767998,5137.540174439087,4.458353189002839
5.65,8.914452737273658,30115.113236830464,2629.763557495729,64630.22665963926,0.1721264471204484,0.05235968618855239,0.0515073263301426,-0.04050924024314931,0.03150260201483082,0.0414767955888204,0.38146001467898294,0.08555215477433792,-0.006589509332604656,0.027096857739835056,-0.07371408388071349,0.0144738388664823,29584.61665235038,6635.106185143198,-511.0577780904565,9667.043837342258,-26298.151879684312,5163.670125898676,4.458800782810967
5.7,8.923313372454565,30119.751968076194,2632.377444874097,64717.06202402587,0.17238692445378587,0.0523559786393692,0.051355286672237634,-0.04025308322780778,0.03170269974797852,0.04133226324155835,0.3817854682354666,0.0856193796484872,-0.006570833177768389,0.026958367474865907,-0.07382932211866902,0.014525419371198719,29649.640593199743,6649.241643803718,-510.29402197819667,9630.558196454329,-26374.652839476195,5189.0344143671155,4.459101079719308
5.75,8.93208291606546,30124.356826910276,2634.9644602393105,64802.86937726379,0.17263263134374013,0.052347545998650595,0.051190909153726885,-0.03998725560283678,0.031897019751847215,0.04118317405414012,0.3820855706519984,0.08568374024012178,-0.006551826502090859,0.0268127723373396,-0.07393426858551468,0.014574930655318348,29712.289591078497,6663.062671843215,-509.49258839698683,9591.246100472492,-26447.163178071558,5213.6252474647845,4.459254107970011
5.800000000000001,8.940760806858542,30128.927674036084,2637.52443802327,64887.6415798756,0.1728635324089435,0.05233438902743668,0.051014233265518516,-0.039711821232044545,0.03208552661215405,0.041029544463497596,0.3823602667285779,0.08574523037849355,-0.006532492629844737,0.02666010740697651,-0.07402890558258542,0.014622363602452455,29772.547130243518,6676.56693118026,-508.6536484662531,9549.11144635493,-26515.657227802763,5237.435000445776,4.459259891667173
5.8500000000000005,8.949346489451763,30133.464371185837,2640.05721438827,64971.37157794509,0.1730795944000417,0.05231650891313517,0.05082530145314486,-0.03942684628721385,0.03226818597404552,0.040871391407137546,0.3826095050529513,0.08580384425270482,-0.0065128348667002345,0.02650040951867115,-0.07411321687263285,0.014667709422828057,29830.39718645875,6689.7521373103355,-507.77737698021286,9504.159105005234,-26580.110184522993,5260.456219075542,4.4591184507550805
5.9,8.957839414364368,30137.966781124793,2642.562627237489,65054.05240381032,0.17328078620448129,0.05229390726941424,0.050624159106565106,-0.039132399232204476,0.03244496454835849,0.040708732321274234,0.3828332380086937,0.0858595764123696,-0.0064928564991422995,0.02633371725362852,-0.07418718768257451,0.014710959654902918,29885.82423280553,6702.616059959098,-506.8639523347482,9456.394922569798,-26640.498117468193,5282.681622458173,4.458829800999807
5.95,8.966239038052063,30142.4347676554,2645.0405162253587,65135.67717674653,0.1734670788509901,0.052266586136056906,0.05041085454926052,-0.0388285508065051,0.03261583011768711,0.04054158513890712,0.383031421782739,0.08591242176822741,-0.006472560793898402,0.02616007093007576,-0.07425080470603164,0.014752106166925478,29938.813245348872,6715.156523721303,-505.91355645387904,9405.825721322577,-26696.79797886042,5304.104105812042,4.458393953974112
6.0,8.974544822941796,30146.8681956214,2647.49072276783,65216.23910363932,0.17363844551374896,0.0522345479787769,0.05018543902662499,-0.038515374008238505,0.032780751542254294,0.04036996828784375,0.3832040163723556,0.08596237559270901,-0.006451950997376955,0.025979512593551437,-0.0743040561056546,0.014791141158439344,29989.349708657348,6727.3714086851505,-504.92637471587955,9352.459300135764,-26748.98761324843,5324.716743192623,4.457810917045637
6.050000000000001,8.982756237466173,30151.266930911934,2649.913090052521,65295.731479647446,0.17379486151625453,0.05219779568899617,0.04994796669365362,-0.03819294407662408,0.03293969876558692,0.040193900688668106,0.3833509855915652,0.08600943352045443,-0.006431030335116488,0.025792086006774725,-0.07434693151523594,0.014828057161732138,30037.419621174045,6739.258651041816,-503.90259587907997,9296.304434534806,-26797.0457665813,5344.512790161233,4.457080693368341
6.1000000000000005,8.990872756097465,30155.6308404656,2652.307463048752,65374.14768885526,0.17393630433487275,0.05215633258358394,0.049698494601932146,-0.03786133847390205,0.03309264281999347,0.04001340175265468,0.38347229707700636,0.08605359154878263,-0.006409802011245696,0.025597836639096917,-0.07437942204161026,0.014862847043228374,30083.009500436146,6750.81624367985,-502.8424120073971,9237.370876336507,-26840.952095010784,5363.485686398443,4.456203281877213
6.15,8.99889385938125,30159.959792274465,2654.6736885174687,65451.48120491554,0.17406275360208218,0.052110162404557306,0.04943708268593067,-0.03752063686672344,0.03323955583184337,0.03982849137962832,0.3835679222932399,0.08609484603811345,-0.006388269207954411,0.025396811655537813,-0.074401520266341,0.014895504004826154,30126.10638814139,6762.042236764414,-501.7460183956425,9175.669352869416,-26880.687173419174,5381.629058261119,4.455178677286184
6.2,9.006819033969656,30164.253655388067,2657.0116150210483,65527.725591680704,0.17417419110940674,0.0520592893187436,0.04916379374860462,-0.03717092110701061,0.03338041102664684,0.03963918995577036,0.38363783653749645,0.08621843163696191,-0.006366435084975633,0.025189059905409688,-0.07441322024719338,0.014926021585177411,30166.69785505815,6779.637275102307,-500.61361349463806,9111.211565775391,-26916.23250366765,5398.936721281726,4.449603515787343
6.25,9.014647772654214,30168.512299917373,2659.3210929329935,65602.87450382527,0.17427060081003806,0.05200371791740429,0.048878693446306666,-0.03681227521229271,0.033515182733934536,0.03944551835137102,0.3836820189438655,0.08635172881733792,-0.006344302779078664,0.024974631910531446,-0.07441451751939375,0.014954393660911494,30204.772005778457,6797.905954550605,-499.4453988362009,9044.01018939215,-26947.570522562968,5415.402682609023,4.4432465244034445
6.300000000000001,9.022379574398322,30172.73559703871,2661.6019744475047,65676.92168745601,0.1743519688211458,0.05194345321582062,0.04858185027301312,-0.03644478534552087,0.0336438463919358,0.03924749791852854,0.38370045248692386,0.08648090201032108,-0.006321875403573488,0.02475357985303591,-0.07440540909667447,0.014980614447801782,30240.31748331016,6815.759314550896,-498.24157895802034,8974.078868715995,-26974.68460953709,5431.021143388737,4.436822969782751
6.3500000000000005,9.030013944369305,30176.923418997667,2663.854113588945,65749.86098071326,0.17441828342587692,0.051878500652841004,0.048273335543868576,-0.03606853979436798,0.03376637855205511,0.03904515048879503,0.3836931239848051,0.08660594284658082,-0.006299156047826421,0.024525957562773152,-0.07438589347210464,0.01500467850187525,30273.323473507815,6833.194442719545,-497.0023613284876,8901.432216945066,-26997.559094037984,5445.786501083442,4.430332508064753
6.4,9.037550393970092,30181.075639112943,2666.077366221177,65821.68631436054,0.174469535075043,0.05180886609039017,0.04795322337805276,-0.03568362895001797,0.03388275688314544,0.038838498370769685,0.38366002410170813,0.08672684339921863,-0.006276147776787141,0.024291820504312833,-0.07435597061870629,0.015026580720464634,30303.779709339167,6850.208497509647,-495.72795627150543,8826.085812602763,-27016.179262626905,5459.693351730322,4.423774797563596
6.45,9.04498844087048,30185.1921317802,2668.2715900567914,65892.39171236394,0.1745057163884951,0.051734555812940106,0.04762159068097376,-0.03529014528544979,0.03399296017557807,0.038627564347639184,0.3836011473498444,0.08684359618429138,-0.006252853630527194,0.024051225763548803,-0.07431564198985566,0.015046316343203112,30331.67647498582,6866.7987089828175,-494.41857689132974,8748.056196241898,-27030.53136577956,5472.736492135944,4.4171494986895965
