time,east,north,altitude,velocity,gamma,heading,roll,pitch,yaw,roll_ref,pitch_ref,yaw_ref,roll_error,pitch_error,yaw_error,gamma_rate_cmd,heading_rate_cmd,gamma_rate_achieved,heading_rate_achieved,alpha_rad,beta_rad,clift,cdrag,cy,cl_roll,cm_pitch,cn_yaw,lift,drag,side_force,force_east,force_north,force_up,force_tangent,force_normal,force_lateral,speed_dot_force_m_s2,gamma_rate_force_rad_s,heading_rate_force_rad_s,quat_w,quat_x,quat_y,quat_z,quaternion_norm_error,dcm_orthogonality_error,body_x_east,body_x_north,body_x_up,body_force_x,body_force_y,body_force_z,dcm_force_east,dcm_force_north,dcm_force_up,dcm_force_delta_east,dcm_force_delta_north,dcm_force_delta_up,dcm_force_delta_norm,mx_cmd,my_cmd,mz_cmd,mx_allocated,my_allocated,mz_allocated,mx_aero,my_aero,mz_aero,allocation_residual_norm,left_elevon,right_elevon,rudder,body_flap,left_elevon_rate,right_elevon_rate,rudder_rate,body_flap_rate,qbar,load_factor
0.0,0.0,0.0,30000.0,1750.0,-0.017453292519943295,0.0,0.0,0.017453292519943295,0.0,0.2617993877991494,0.017336311252384398,0.017357652290940884,-0.2617993877991496,0.00011698126755899096,-0.017357652290940884,-8.355804825635514e-05,0.014464710242450565,-0.0025510935277428333,8.686947614188472e-05,0.03490658503988664,0.0,0.18364529599199214,0.0665085805107574,0.005226575783564252,0.05044001538263613,0.019271577308100758,0.015098996708074507,6408.8912713865575,2321.03010755195,182.39811554980375,-2208.8260281438115,182.39811554980375,6448.422726993932,-2321.0301075519506,6408.891271386558,182.39811554980375,-1.7630421147051059,-0.0025510935277428333,8.686947614188472e-05,0.9999619230641713,0.0,-0.008726535498373935,0.0,0.0,0.0,0.9998476951563913,0.0,0.01745240643728351,-2095.9491189301216,182.39811554980375,6485.989930571391,-2208.8260281438115,182.39811554980375,6448.422726993933,0.0,0.0,9.094947017729282e-13,9.094947017729282e-13,4800.0,-11.113220418104142,1562.1887061846796,3408.948361883959,-8.342661936170792,1460.5525353259297,8097.223693173121,3093.6999364534204,2423.8682910840585,1394.7624339386446,0.07417649320975901,-0.07417649320975901,0.05807306426182503,0.00304450629697949,0.0,0.0,0.0,0.0,29081.837883766693,0.5448247096294027
0.05,87.48577202832814,0.0001899954272426049,29998.46734887015,1749.9678556004228,-0.017580847196330438,4.3434738072889445e-06,1.0518896899736063e-05,0.017460501074442053,6.146133624707062e-06,0.2617993877991494,0.01722207959503073,0.01738962744180883,-0.26178886890224984,0.00023842147941133263,-0.017383481308184123,-7.404160608958793e-05,0.014487736640001237,-0.0025017876756173747,9.771356587827178e-05,0.03504134827077232,1.8023812359679614e-06,0.1838211127003139,0.06656999607750978,0.005206300412851779,0.07192854940841277,0.01886519410427725,0.015041576938896163,6416.1569463046935,2323.582620482425,181.72254572807236,-2210.428661615579,181.78043568420196,6456.013845384207,-2323.582620482425,6416.156945949729,181.79003662148182,-1.763918516658056,-0.002547667958457812,8.658165446342196e-05,0.9999619230641713,0.0,-0.008726535498373935,0.0,0.0,0.0,0.9998476951563913,0.0,0.01745240643728351,-2097.3717533058993,181.71835774606183,6493.622979842644,-2210.3816609237206,181.71835774606183,6456.029785321472,0.04700069185855682,-0.06207793814013485,0.015939937265102344,0.07947840611718894,4800.0,-29.353139941178895,1558.4304249743868,4798.838053630659,-29.33764496411935,1557.8794546486647,11548.849496484694,3028.9959859358164,2415.0759286240973,1.2860512273490996,0.10627332985254109,-0.10528165132072845,0.057851387127491716,0.0037602959117561943,0.6419367328556416,-0.6221031622193887,-0.004433542686666236,0.01431579229553409,29086.96056024244,0.5536833498724801
0.1,174.96974452259332,0.0007836883116127605,29996.923674696445,1749.9357806182607,-0.017705936580111308,9.229152101219995e-06,8.409742708792578e-05,0.017510936227332484,4.8351279583247475e-05,0.2617993877991494,0.01711007611620607,0.017422195812814678,-0.26171529037206165,0.00040086011112627773,-0.01737384453323143,-6.469453112086563e-05,0.014510805550594643,-0.002401408199480657,0.00012944660510349993,0.03521687280744379,3.911599524503187e-05,0.18402882766693515,0.06668538804163442,0.005113795226897118,0.07196237121427604,0.018199028064917872,0.01479822044799294,6424.548907405755,2328.0240509828936,178.52544057455603,-2213.9140834340496,179.0452960650431,6464.759554846809,-2328.024050982894,6424.548884687338,179.06572860723256,-1.7663931918626647,-0.0025437059798998156,8.52858920251686e-05,0.9999620171878598,1.553384243613821e-05,-0.008715724457458255,9.352416921897959e-06,1.1102230246251565e-16,1.3928832296234492e-18,0.9998480721194279,1.8433346000728012e-05,0.017430787110024992,-2100.38177965239,178.4343774602933,6502.534392925596,-2213.410347774796,178.19258917940758,6464.9406812484085,0.5037356592538345,-0.8527068856355129,0.18112640159961302,1.0068095254667266,4800.0,-64.87996505724374,1540.2183026023513,4798.836655818575,-64.84473866270818,1539.67809472611,11556.333778860066,2922.5557638004875,2376.4249557723383,1.2831348849126525,0.10695886299851338,-0.10470437374823847,0.0568981789560136,0.00512929821251777,0.013710662919445837,0.011545551449799463,-0.01906416342956227,0.027380046015231512,29092.130966899538,0.5717934888197314
0.15000000000000002,262.4519253341974,0.001874180483636077,29995.369305217813,1749.9037729842094,-0.017826006990085342,1.570148235652269e-05,0.00028355568482574256,0.01764484768014285,0.00015487651304590955,0.2617993877991494,0.017002585822031693,0.01745633320744533,-0.26151583211432383,0.000642261858111226,-0.01730145669439942,-5.570873412111014e-05,0.014533859770907367,-0.0022508739149533024,0.00017552800771795252,0.035470854670228036,0.00013915291869198476,0.18432094543265504,0.06685960443517389,0.0049520401848707355,0.07201604209546603,0.017199946970187553,0.014394951735367218,6435.900773069599,2334.524591664932,172.9094823123391,-2219.4360963017193,174.69957012389088,6476.491032275708,-2334.524591664932,6435.900514334078,174.73441853906203,-1.7706330064327445,-0.002538334717985863,8.322466416340242e-05,0.9999623890939267,7.764043461682791e-05,-0.008672503045231582,4.5392287826016244e-05,0.0,1.1102230246251565e-16,0.9998495712609413,8.943448735058964e-05,0.017344360777622164,-2104.8411079708662,172.5846247286297,6514.643503405461,-2217.532614647926,171.37968592143176,6477.183000748545,1.9034816537932784,-3.3198842024591215,0.6919684728372886,3.8889193732277354,4800.0,-118.64148008759892,1509.4261142161117,4798.834304739985,-118.5763739662213,1508.9040622929401,11567.026523086302,2762.6100659086746,2312.079137878957,1.2789145619429554,0.10800571107373264,-0.10383891930556555,0.05530097455816992,0.007193489970412252,0.02093696150438501,0.017309088853458554,-0.03194408795687359,0.041283835157889644,29097.347735687617,0.599013165318415
0.2,349.93232625649443,0.0036316326709921075,29993.804789541966,1749.8718293969007,-0.017938550685833006,2.4477882742512946e-05,0.0006713826370829956,0.01788790711795199,0.00034086569648117404,0.2617993877991494,0.01690185216313522,0.017492709895112757,-0.2611280051620666,0.0009860549548168507,-0.017151844198631583,-4.7272993513117374e-05,0.01455686001030842,-0.0020629215285494877,0.00023034965400484307,0.035826457803784795,0.0003163369096332121,0.18475128676239325,0.06708347805499616,0.004728935154549732,0.07208390489899281,0.01590640981695694,0.013863823846420039,6452.093255969942,2342.7650433758827,165.14921846162875,-2226.657291803778,169.42653771576195,6493.07727076427,-2342.7650433758827,6452.091801814492,169.48104152109568,-1.776396549351772,-0.0025306590751038253,8.07241570105979e-05,0.9999631642116518,0.0002173538736864681,-0.008579559503337636,0.00011889425294823018,1.1102230246251565e-16,2.220446049250313e-16,0.9998527540457706,0.0002340501457842376,0.01715853862125218,-2110.2075851960058,164.40810715700894,6531.869840883053,-2222.013237505386,161.06151694822407,6494.770670059451,4.644054298392348,-8.365020767537885,1.693399295180825,9.716399227114717,4800.0,-187.3449599139144,1468.332486432258,4798.8311730402875,-187.24165833011972,1467.8346448461898,11580.01976679185,2555.3074622852037,2227.1733809346865,1.2746269743671268,0.10934860928696452,-0.10273730792410447,0.053176397758707895,0.009827353646344758,0.026857964264637713,0.022032227629221468,-0.04249153598924055,0.052677273518650106,29102.608562017373,0.633072335798013
0.25,437.410962520689,0.006276689626989278,29992.230868264658,1749.839945494649,-0.01804169676226048,3.5995365442964555e-05,0.0013060220630816133,0.018250273551004195,0.0006132067937092422,0.2617993877991494,0.016809548239537512,0.017531734188214187,-0.26049336573606796,0.0014407253114665508,-0.016918527394504945,-3.9528598634713894e-05,0.014579782352309225,-0.001847666275988241,0.000290705373929573,0.0362919703132647,0.0005771174888400348,0.18534496973277115,0.06734833495160966,0.00445029041159294,0.07216245273547452,0.01436003339468563,0.013225749715237227,6474.005711005995,2352.4431536076013,155.44638509384782,-2235.270586995841,163.8211177097797,6515.386329149289,-2352.4431536076013,6474.000189671632,163.90157698527642,-1.7834502874232327,-0.002520261267587724,7.806821429516392e-05,0.9999643436349542,0.00046569261967154045,-0.008428479594282135,0.00023520380048984934,1.1102230246251565e-16,2.220446049250313e-16,0.999857810821802,0.0004625406664703392,0.0168565771960219,-2116.080524310596,154.08872319691926,6555.1019973566545,-2226.347042958126,146.97876866374617,6518.64084005293,8.923544037714692,-16.842349046033547,3.2545109036409485,19.336137173783662,4800.0,-268.06885373066496,1418.415679128378,4798.827374252232,-267.92066343802793,1417.9472284417545,11594.750083020313,2307.3079154549723,2125.056130933967,1.2713998399234774,0.11093123956230094,-0.10144706083352763,0.050601906217601626,0.012918264365662372,0.03165260550672844,0.02580494181153692,-0.05148983082212538,0.061818214386352294,29107.910330397073,0.6721546049341436
0.30000000000000004,524.8878519100499,0.010061200172268421,29990.648423480066,1749.808116139054,-0.01813408007605989,5.0530634139622777e-05,0.00222732512239876,0.018732556319380474,0.000974041215886956,0.2617993877991494,0.016726894207016507,0.017573664635498698,-0.2595720626767508,0.0020056621123640817,-0.016599623419611742,-3.257911200727908e-05,0.014602611667799135,-0.001612533078116518,0.0003546566796839341,0.03686663639544019,0.0009233587400543555,0.18610848312976316,0.06764691397453386,0.004120802666670104,0.07224937743151162,0.012598705019942511,0.012495490630681755,6501.867205075128,2363.3057671470574,143.96394654577497,-2245.0265747102794,158.33226432589177,6543.63608363012,-2363.3057671470574,6501.851077274312,158.44570674018544,-1.791596642748801,-0.0025070339652896595,7.547101921099339e-05,0.9999658028047189,0.000848105811517374,-0.008216856713148068,0.0003964888424734278,0.0,1.1102230246251565e-16,0.9998646521247068,0.000779013039472457,0.01643382396837191,-2122.184060706087,141.78170644913902,6584.561464484057,-2230.2118969729454,128.9169175270726,6549.026816431789,14.814677737334023,-29.415346798819172,5.3907328016684914,33.37360190172535,4800.0,-358.462310058361,1360.7312273033806,4798.822989958024,-358.26384249626994,1360.2967224277213,11610.846045931858,2024.6766071213299,2008.0895246296152,1.2702505654739906,0.11270867688502267,-0.10000675291120077,0.0476334137764432,0.016375287873713857,0.03554874645443462,0.02880615844653711,-0.05936984882316851,0.06914047016102969,29113.249325223467,0.7149153749209718
0.35000000000000003,612.3630140579235,0.015256964320025365,29989.058440412515,1749.7763356325588,-0.018214706729965717,6.826346812394135e-05,0.003456566266393679,0.019329326677603394,0.0014226773038084062,0.2617993877991494,0.016654777742168347,0.017618669235800688,-0.2583428215327559,0.0026745489354351726,-0.016195991931992282,-2.650040553752002e-05,0.014625338139730444,-0.0013635358431169785,0.00042094463358792407,0.03754403340756918,0.0013541891612046482,0.1870369341018329,0.06797257352596586,0.0037446572889257,0.0723430203058361,0.01065935712646503,0.011684579897845219,6535.5092046520795,2375.12116029968,130.8471094095077,-2255.7025466237824,153.2835033539201,6577.645780650054,-2375.12116029968,6535.470162047971,153.43748507554608,-1.8006522569141725,-0.0024910601531570827,7.308693253717404e-05,0.9999672976333867,0.0013789590911895077,-0.00794597859623372,0.0006029591653513469,0.0,1.1102230246251565e-16,0.9998729957287862,0.00118396453547199,0.015893100399902483,-2128.310579796361,127.63062708517826,6620.060917785644,-2233.388254946845,106.78978058574344,6585.7250854909,22.3142916769375,-46.49372276817667,8.079304840845907,52.20027812760031,4800.0,-456.44506606208904,1296.1146426864511,4798.818085161485,-456.19208654757097,1295.7181418817606,11628.040183127969,1713.3295301861717,1878.1184971365178,1.2720590428071528,0.11464145540388704,-0.09845076647473787,0.04431568153269485,0.020117728907807417,0.038655570377287285,0.031119728729258056,-0.06635464487496703,0.07484882068187121,29118.62139259707,0.7602597112746499
0.4,699.8364698891976,0.022148739869711314,29987.461978020998,1749.7445978850308,-0.018282883522121565,8.931069980322448e-05,0.005004880357631247,0.020031143088314697,0.001956645914864108,0.2617993877991494,0.01659381724163872,0.017666857181061868,-0.2567945074415183,0.003437325846675776,-0.01571021126619776,-2.1345911518791653e-05,0.014647955401048827,-0.0011059409148787731,0.0004886925272883395,0.03831402661043626,0.0018670231324438584,0.1881181616033918,0.06831890726528804,0.0033258515916483817,0.0724420728651436,0.008579184394359469,0.010802910513970506,6574.508987084084,2387.665635125481,116.23461016539058,-2267.0871214828135,148.9366291426104,6616.9788602555855,-2387.6656351254815,6574.426645385555,149.1391036856866,-1.8104375113196698,-0.002472544950580524,7.104085992609264e-05,0.9999684728788762,0.0020658068232980308,-0.007619517057651256,0.0008536101365698034,0.0,1.1102230246251565e-16,0.9998824286190858,0.0016756855487434072,0.015242080459717275,-2134.2917523248057,111.77658319808799,6661.150861706687,-2235.717973220455,80.59198075630665,6628.249857078839,31.36914826235852,-68.34464838630375,11.270996823253881,76.03979086730263,4800.0,-560.0579668650698,1225.291971639902,4798.812716644722,-559.74732702434,1224.9371006068507,11646.120997373055,1379.2291628855364,1736.725607006064,1.2775258613693663,0.11669258477944482,-0.09681163497272906,0.040687952838758625,0.024069449491201156,0.04102258751115556,0.03278263004017623,-0.0725545738787245,0.07903441166787477,29124.022064321274,0.8072276478177844
0.45,787.3082411345313,0.0310295716197069,29985.86014432701,1749.7128965533195,-0.018338180567865504,0.00011374532616770239,0.006877964990636087,0.020825775743427553,0.002572285791730078,0.2617993877991494,0.016544395323215756,0.017718296711783044,-0.2549214228085135,0.004281380420211978,-0.015146010920052966,-1.7149392003808216e-05,0.014670459488012915,-0.0008445951018380736,0.0005572427254856394,0.0391639563112931,0.002458127087253861,0.18933515513155977,0.06867958331193655,0.0028683650128649126,0.07254541477309304,0.0063960050782297054,0.009859589150785551,6618.273963182662,2400.71791062672,100.2646627793827,-2278.973392006638,145.52533886767176,6661.026983086756,-2400.7179106267204,6618.117420434098,145.78456049751074,-1.8207722197010032,-0.002451775528826203,6.944428667995509e-05,0.9999688718513592,0.0029125543245997663,-0.007242758688819122,0.0011466482467788327,0.0,2.220446049250313e-16,0.9998924552887474,0.0022510352512012314,0.014491745820920074,-2139.9845062114796,94.36309607849086,6707.205950320969,-2237.0842634224528,50.3636739080123,6675.92444830271,41.88912858418507,-95.16166495965946,14.897465215953162,105.03511813340053,4800.0,-667.3957553419772,1148.939731704013,4798.806937471577,-667.0253630346081,1148.6297125773579,11664.90700194684,1028.4427300455868,1585.3681570509805,1.287128788030732,0.1188261787476842,-0.09512107107606094,0.036786976539673416,0.028156337938520046,0.04267187936478761,0.033811277933362416,-0.07801952598170417,0.08173776894637781,29129.446662031438,0.8549372133671944
0.5,874.7783498828717,0.04219743594117839,29984.254074296914,1749.6812251660251,-0.018380410322957407,0.00014160746244185063,0.009078597034282154,0.021699002601395425,0.0032650714191988506,0.2617993877991494,0.016506677643015118,0.017773025351552896,-0.2527207907648674,0.00519232495838029,-0.014507953932354045,-1.3926481367190161e-05,0.014692848240925746,-0.0005840714748481865,0.0006260667474725587,0.04007941292435291,0.0031229363568857633,0.19066756136356902,0.06904830543685242,0.0023762449914901613,0.07265202719015684,0.004148152040937969,0.008863387021600689,6666.094201648014,2414.0577726724387,83.077964841975,-2291.1567146342677,143.27147310821366,6709.062407952218,-2414.0577726724387,6665.8194907126945,143.59591655905726,-1.831474708770577,-0.0024290961537025762,6.840302016800575e-05,0.9999679462564387,0.003921153073219352,-0.0068221259915596825,0.0014797348451087852,0.0,1.819426770702237e-18,0.9999025379634869,0.002905873627539655,0.013655419167436109,-2145.264967638608,75.53862319207884,6757.478887744789,-2237.402846197749,16.17314841073445,6727.93844475293,53.75386843651859,-127.0983246974792,18.876036800712427,139.2830473463955,4800.0,-776.5847255377721,1067.717010943014,4798.8007993729225,-776.1535273252356,1067.454672575743,11684.23284560322,667.1248718005498,1425.4506276888994,1.3010901050350876,0.12100696353456464,-0.09341027793222273,0.03264859484143998,0.03230549546553624,0.04361569573760882,0.03421586287676415,-0.08276763396466866,0.08298315054032383,29134.890390614484,0.9025587750635096
0.55,962.2468181577361,0.05595264712688941,29982.644909242368,1749.6495772393262,-0.018409613896699817,0.00017291079981562874,0.011607977792263746,0.022635177866263755,0.0040298006000676345,0.2617993877991494,0.01648062518560295,0.0178310559415098,-0.25019141000688583,0.006154552680660785,-0.013801255341442165,-1.167568398844623e-05,0.014715120951411958,-0.0003287170405861437,0.0006947156417661735,0.041044791762963495,0.0038562362419598045,0.19209270248586424,0.0694188400891157,0.0018536461204958312,0.07276094750663713,0.0018741088384042846,0.007822968876286676,6717.1779364742415,2427.467024972256,64.81907257014065,-2303.4350044004245,142.39188715963252,6760.273430835996,-2427.4670249722553,6716.725387986808,142.7901738179554,-1.8423627449129816,-0.0024048913222941308,6.802046529743944e-05,0.9999650653923662,0.005092509562451735,-0.0063648533249862135,0.0018501306301394803,0.0,1.1102230246251565e-16,0.9999121313176057,0.0036353058402615003,0.012748105558516857,-2150.0265145503936,55.45772750523978,6811.137021595081,-2236.6187914020957,-21.891083215763494,6783.386636642167,66.81621299832887,-164.28297037539602,23.11320580617121,178.85055481445877,4800.0,-885.784596844555,982.2822092775352,4798.794353964355,-885.2925595320687,982.0699878545244,11703.942078782215,301.45925864993364,1258.3614940394139,1.319363866615522,0.12320026224367434,-0.09170987424454305,0.028308540489428845,0.036445349329475636,0.043865974182193956,0.034008073753593604,-0.08680108704022277,0.08279707727878796,29140.348425298056,0.949306322304728
0.6000000000000001,1049.7136675136028,0.0725957202629216,29981.03377731548,1749.617946386268,-0.018426049748729124,0.00020764658190408625,0.014466450631593464,0.023617680272812,0.0048607064979973025,0.2617993877991494,0.016466004418941076,0.0178923803567832,-0.2473329371675561,0.007151675853870998,-0.013031673858785897,-1.0379194440279012e-05,0.014737278145732636,-8.264865667693879e-05,0.0007627925283469293,0.04204373002154105,0.004652270036597354,0.19358633411685103,0.06978507788304604,0.001304843081175728,0.07287124680964807,-0.0003879868303853992,0.00674699950237441,6770.678007792748,2440.7316469438483,45.636859614296505,-2315.6103482272847,143.10029692128956,6813.7908052642015,-2440.7316469438483,6769.969542516011,143.58112240663024,-1.8532554432444721,-0.0023795732072553386,6.839850400559996e-05,0.9999595243415438,0.0064269725843999785,-0.005878744850475181,0.0022547862461771533,0.0,1.1102230246251565e-16,0.9999207125959341,0.00443382490046895,0.011785996707588649,-2154.1797912310317,34.28146399368499,6867.289755706784,-2234.7059574013238,-63.72322191264536,6841.298342822154,80.90439082596095,-206.8235188339349,27.507537557952674,223.78148498093634,4800.0,-993.2031268207259,893.3012520570503,4798.78765331696,-992.6512109845412,893.141187052573,11723.883568314544,-62.421224071543946,1085.4903691704212,1.341646889374221,0.12537223089405708,-0.09004961737822488,0.0238027965307028,0.04050625222680254,0.04343937300765488,0.033205137326363376,-0.09011487917452092,0.08121805794653811,29145.815994195666,0.9944377652387577
0.65,1137.1789186544743,0.0924255219937501,29979.421775003204,1749.586326420065,-0.01843018218156297,0.0002457862083216078,0.017653882726960113,0.024629297412796895,0.005751530126592463,0.2617993877991494,0.016462397630508864,0.017956971940332966,-0.24414550507218946,0.008166899782287906,-0.012205441813740503,-1.0003734153398671e-05,0.014759321443342738,0.00015027705832338007,0.0008299373516584085,0.04305947959435974,0.0055048088722737636,0.19512326372457395,0.07014111169856385,0.0007342284474027812,0.07298201984441234,-0.002600900786602949,0.005644182081863243,6825.713454539272,2453.644535758826,25.684446316031334,-2327.491269978439,145.60647123650276,6868.70935136894,-2453.644535758826,6824.64983268539,146.1785320867865,-1.8639756654820825,-0.002353571396126504,6.9637109709028e-05,0.9999505509797426,0.007924594428764248,-0.005371975925765577,0.0026904038919266056,1.1102230246251565e-16,1.1102230246251565e-16,0.9999278072031026,0.005295400247194553,0.01078606129302458,-2157.6534743336406,12.177281166327449,6925.011087401919,-2231.667283589854,-109.20061594633684,6900.661687327656,95.82398638858513,-254.8070871828396,31.952335958716503,274.0982302373032,4800.0,-1097.1169840572065,801.4509963664449,4798.7807501651905,-1096.507106070227,801.3447246662686,11743.909917759898,-418.5242421080302,908.2341934375958,1.367411786165165,0.1274902199277423,-0.08845802876106428,0.01916771160457843,0.04442131922335921,0.04235978067370416,0.031831772343212106,-0.09270169852248739,0.0783013399311333,29151.288456708153,1.03725982377018
0.7000000000000001,1224.6425910794173,0.11573761574993438,29977.80994969554,1749.5547114510225,-0.0184226683286468,0.00028728307590464297,0.02116986738544968,0.025652574410367487,0.006695573476537486,0.2617993877991494,0.016469214608165618,0.018024787224549144,-0.2406295204136999,0.009183359802201974,-0.011329213748011657,-1.0501502195837346e-05,0.014781253457203627,0.00036650534262860543,0.0008958183913398835,0.04407524273901409,0.006407202961463526,0.1966778920165446,0.0704813209528084,0.00014630126197836928,0.07309238185910717,-0.0047288774728108315,0.00452325798549639,6881.3884388980005,2466.0084679070897,5.118805181669577,-2338.895265409526,150.11408602128432,6924.106931266354,-2466.0084679070897,6879.846503661381,150.78600484353223,-1.874352615488983,-0.002327323883123194,7.18333239602499e-05,0.9999373116909979,0.009585270746466963,-0.004852918089287487,0.003153483615932433,0.0,1.1102230246251565e-16,0.9999330094542054,0.006213538791161674,0.009765681724624007,-2160.3951092436937,-10.681408540254939,6983.3594846909145,-2227.5349486295563,-158.18306357936814,6960.445171394255,111.36031677996971,-308.29714960065246,36.33824012790137,329.8010313822795,4800.0,-1195.89514158092,707.4198390761733,4798.773697905672,-1195.2301227270416,707.3685888989162,11763.87699279668,-761.0907113601261,727.9972165995963,1.3959561179480013,0.1295231887594431,-0.08696198211121646,0.014439975500464488,0.04812735833008889,0.04065937663401631,0.029920932996956306,-0.09455472208227882,0.07412078213459364,29156.761377460498,1.0771349998162847
0.75,1312.1047027608565,0.14282274950028034,29976.199283484115,1749.52309597622,-0.01840434306151537,0.00033207399547174887,0.025013830943144022,0.026670140036310245,0.0076857447715550364,0.2617993877991494,0.01648570618128486,0.018095767256255613,-0.23678555685600555,0.010184433855025432,-0.010410022484700576,-1.1811283633114243e-05,0.014803077717319885,0.0005628281509572083,0.0009601275587958975,0.0450744830978258,0.00735242539412954,0.1982247079297253,0.07080045568403559,-0.00045435055151979203,0.07320146926536546,-0.0067382042553519005,0.003392983992296839,6936.809570752756,2477.6390578756195,-15.899850665319905,-2349.651381611785,156.8179877199195,6979.061859841288,-2477.6390578756186,6934.639531684437,157.59823718143102,-1.8842244528119676,-0.002301268800771565,7.507995185305005e-05,0.9999189157089631,0.011408815201930628,-0.004329977955254072,0.0036403617961734734,0.0,1.1102230246251565e-16,0.9999359981138,0.007181333403396372,0.008742318154124152,-2162.371640794401,-34.115913109497775,7041.396176811091,-2222.3698523982744,-210.51176993206798,7019.617664881782,127.28152921351057,-367.3297576519875,40.5558050404934,390.8663606120129,4800.0,-1288.0225596303383,611.9065968783179,4798.766550469402,-1287.3060621365978,611.9111824973545,11783.644058926224,-1084.6858859290196,546.187338370507,1.42645975441649,0.13144213053042655,-0.08558629093103173,0.009656511326928055,0.05156580857794342,0.03837883541966902,0.02751382360369453,-0.09566928347072866,0.06876900495709062,29162.230595104877,1.1134891825444975
0.8,1399.5652698613114,0.1739654571564052,29974.590678380107,1749.491474960925,-0.01837620165396751,0.0003800803734117508,0.02918508935525077,0.027665015110423165,0.008714602500531132,0.2617993877991494,0.01651097976683984,0.018169838701953545,-0.2326142984438988,0.011154035343583502,-0.009455236201422412,-1.3859727913743262e-05,0.014824798607118286,0.0007364273978653416,0.0010225778713551783,0.04604121676439066,0.008333114946053117,0.1997387505621643,0.0710937163746463,-0.0010630724060011194,0.07330844244014748,-0.008597745456340494,0.002262095503692983,6991.102096588765,2488.3675711508427,-37.208842578130714,-2359.6027020628403,165.901306101692,7032.669216608947,-2488.3675711508427,6988.124904359958,166.79813277306073,-1.8934408068096409,-0.002275836667408378,7.946418607910632e-05,0.9998944180433104,0.013394998982770558,-0.003811445860628027,0.004147245897343959,0.0,1.1102230246251565e-16,0.9999365464638369,0.008191507419162492,0.007733191590584934,-2163.5694460244313,-57.943163693165715,7098.20231002609,-2216.260156049147,-266.0084231440701,7077.1672745226515,143.3425460136932,-431.9097292457621,44.49805791370454,457.24520431922156,4800.0,-1372.1227676479577,515.6182180228038,4798.759362110849,-1371.3592182346872,515.679035957318,11803.074262321172,-1384.2856938690832,364.2101827541896,1.4580428319022072,0.13322048068910616,-0.08435331823981064,0.004854314269871573,0.05468363166979002,0.03556700317359218,0.024659453824421862,-0.09604394114112964,0.06235646183693197,29167.6922851822,1.1458190252161784
0.8500000000000001,1487.024306493532,0.20944275780594043,29972.98494314395,1749.4598439106871,-0.018339380284074242,0.00043120926697959305,0.033682878734955235,0.028620903648435184,0.009774402122132653,0.2617993877991494,0.016544016847692387,0.018246914835016614,-0.22811650906419434,0.012076886800742592,-0.008472512712883962,-1.6562791514257523e-05,0.014846421306697586,0.0008849136522831949,0.0010829022415260823,0.046960283932509395,0.009341621687759821,0.20119604210458014,0.07135682675790957,-0.0016751691542910368,0.07341248975452591,-0.010279431848636281,0.0011392603233255124,7043.4250927366065,2498.0434946303435,-58.64393917738629,-2368.6086468436156,177.53268708149935,7084.056198637324,-2498.043494630344,7039.429959684653,178.55403654287318,-1.9018651098187236,-0.002251443082557577,8.506628877891856e-05,0.9998628210006055,0.015543571278740597,-0.00330535306677375,0.0046702477148337414,0.0,1.1102230246251565e-16,0.9999345268547721,0.00923646012786099,0.006754983939984597,-2163.9937930469887,-81.97681827302182,7152.895086227593,-2209.318797264559,-324.47467457997226,7132.119186277569,159.2898495790564,-502.0073616614716,48.0629876402445,528.8617003736764,4800.0,-1446.9784356628315,419.26661296198387,4798.752187136676,-1446.1729377161623,419.3836401337886,11822.035306575339,-1655.3560116604156,183.46163998482714,1.4898185268365165,0.13483449236627734,-0.08328262377944819,7.025277228589998e-05,0.05743412173551987,0.032280233543423575,0.02141388920724907,-0.09568122995171346,0.05500980131459707,29173.14301621752,1.1736985660168475
0.9,1574.481824527856,0.2495229445950347,29971.38278190581,1749.4281989331446,-0.01829513460146008,0.00048535437905572465,0.038506372873204686,0.029522464953384016,0.010857147716338833,0.2617993877991494,0.016583692179134156,0.01832689646626484,-0.2232930149259449,0.01293877277425004,-0.0074697487499260085,-1.9827328065967226e-05,0.014867951739340846,0.0010063584633230051,0.0011408531226779544,0.047817599554844215,0.010370057604111235,0.20257399096739898,0.07158609765252415,-0.0022859347127760104,0.07351283232488591,-0.011758694676787963,3.302547416716051e-05,7092.985632598215,2506.536795362057,-80.04039411647454,-2376.5470253712588,191.86381994684842,7132.396482316413,-2506.536795362057,7087.727752894221,193.01726480878588,-1.9093766895620898,-0.00222848188488288,9.19584143858669e-05,0.9998230743690713,0.0178542693695359,-0.0028193378669792114,0.0052054162610298185,0.0,7.575862680242462e-18,0.9999299099510824,0.010308316143505619,0.005823555915906567,-2163.6677275732745,-106.0285555448224,7204.642827059915,-2201.6800253179313,-385.69220054655597,7183.552390565026,174.8670000533275,-577.5560204934044,51.15590824861283,605.6123772385838,4800.0,-1511.5493115629495,323.564751352921,4798.745079586101,-1510.7075473791895,323.73754561636315,11840.400243925138,-1893.923100445545,5.31927311216134,1.5209372254498663,0.13626356701739994,-0.08239065925676123,-0.004659159378177645,0.05977760876619653,0.028581493022452054,0.017839290453739165,-0.09458824300927089,0.04686974061353322,29178.579798281033,1.196784759992858
0.9500000000000001,1661.937833449277,0.294464459835618,29969.784784731914,1749.3965367887095,-0.018244816678293932,0.0005423970351894347,0.04365469471300898,0.030355563794999707,0.011954649840747233,0.2617993877991494,0.016628794438330353,0.018409672857916615,-0.2181446930861406,0.013726769356669166,-0.006455023017169381,-2.355280233021853e-05,0.014889396518939349,0.0010993191700292332,0.0011962027669460947,0.048600380473293736,0.011410353440916808,0.2038517618982498,0.07177848039412006,-0.0028906849802230058,0.07360872919873719,-0.013014835629138997,-0.0010482415184574826,7139.051813259386,2513.739816810706,-101.23410098325915,-2383.315795679578,209.02737537708106,7176.923475157956,-2513.739816810706,7132.250332444946,210.3200479878375,-1.915872575344543,-0.002207318829218248,0.0001002036289790571,0.9997740743983778,0.020326822964470102,-0.002360521711767718,0.005748770850056722,0.0,1.1102230246251565e-16,0.9999227591419236,0.01139898029720989,0.0049536853136245085,-2162.6304418024406,-129.9095482858497,7252.678821213379,-2193.4950920205524,-449.42345379043746,7230.615108183284,189.82070365902564,-658.4508291675186,53.691633025327974,687.3661218200435,4800.0,-1564.9870834661767,229.22210738564524,4798.738092869659,-1564.1152082614765,229.44981078765719,11858.04833432439,-2096.6338046257843,-168.86718093385682,1.5506207845451787,0.13749053224749547,-0.08169051914665316,-0.009298015120644229,0.061682038408790135,0.02453930460191045,0.014002802202161269,-0.09277711484933167,0.03808859285187205,29184.000123346003,1.2148217082763884
1.0,1749.3923402653045,0.34451485612921323,29968.191420261508,1749.364854929472,-0.01818985071979247,0.0006022071735367618,0.049126925458869763,0.03110749545086855,0.013058590155540006,0.2617993877991494,0.016678047980029632,0.018495122649509366,-0.2126724623402798,0.014429447470838852,-0.005436532493969359,-2.7633100046063964e-05,0.01491076289664377,0.0011628554831191102,0.001248743960766796,0.04929734617066117,0.012454322312935513,0.20501060887444483,0.0719316088143074,-0.0034847938331739126,0.073699482797329,-0.014031326066366801,-0.0020964159044459096,7180.964491279311,2519.5687751577784,-122.06285768741172,-2388.834495106696,229.13543250952904,7216.942300666623,-2519.5687751577793,7172.300767320296,230.57396414354403,-1.921268983108517,-0.0021882858578191155,0.00010985516344885315,0.999714661761882,0.0229609553029348,-0.0019353967796602839,0.006296334585141214,0.0,1.1102230246251565e-16,0.9999132208201945,0.012500198882345728,0.004158828787869733,-2160.9352166170424,-153.43210162406857,7296.31377880411,-2184.9272990707605,-515.4131637102362,7272.538700305471,203.9071960359356,-744.5485962197652,55.5963996388482,773.9649322681635,4800.0,-1606.646854323328,136.93951153644508,4798.731279371297,-1605.7513838751427,137.22085662819148,11874.86594344975,-2260.8044143964667,-337.78605876340504,1.5781870668330007,0.13850186108069862,-0.08119175239684205,-0.013811286853839118,0.0631234158289566,0.020226576664063023,0.009975334996222274,-0.09026543466389779,0.028827548403329295,29189.401996903358,1.22764344865225
1.05,1836.8453494642886,0.3999098456861896,29966.603030504724,1749.3331515258615,-0.018131707945636514,0.0006646443715752071,0.05492211319136997,0.03176718241673316,0.01416059285935578,0.2617993877991494,0.01673013533010961,0.0185831148180875,-0.2068772746077796,0.015037047086623456,-0.004422521958731718,-3.195840295747588e-05,0.014932058705427015,0.0011965374343055999,0.0012982911551326429,0.04989889036236983,0.013493730092420286,0.20603416634549307,0.07204382902580692,-0.004063731910149612,0.07378444448859006,-0.01479603046418691,-0.0031036827035054526,7218.147569910613,2523.9648289093543,-142.36773022794466,-2393.045315133215,252.2784453403223,7251.840349297123,-2523.964828909355,7207.263757008898,253.8689136005775,-1.9255024530459017,-0.0021716760461572035,0.00012095592441428465,0.9996436187338368,0.02575638238790103,-0.0015497264804104993,0.00684416823606583,1.1102230246251565e-16,1.1102230246251565e-16,0.9999015114179847,0.01360362750979584,0.003450910402280884,-2158.647051003477,-176.41143584446473,7334.946713077435,-2176.1466438885172,-583.3906053935127,7308.649844876925,216.89867124469765,-835.669050733835,56.80949557980239,865.2254704585018,4800.0,-1636.0950151781415,47.40346612193025,4798.724690018326,-1635.1827090832944,47.736785608928386,11890.747458998741,-2384.457359064416,-500.17462997844706,1.6030657629879954,0.13928782870568354,-0.08090023863544489,-0.018165116594599563,0.06408610529142808,0.01571935249969847,0.005830275227943216,-0.08707659481520888,0.01925378924942961,29194.783960437493,1.2351752269070857
1.1,1924.2968630225878,0.4608724419298942,29965.01982785483,1749.3014254808072,-0.018071881073921235,0.0007295589293319082,0.06103928184375507,0.03232533987218887,0.01525230255152854,0.2617993877991494,0.016783720030501798,0.01867350969109305,-0.2007601059553945,0.015541619841687115,-0.0034212071395645083,-3.6417096759683294e-05,0.0149532923014675,0.0012004445270472736,0.0013446819276277428,0.0503972209461101,0.014520372174366346,0.20690869466577452,0.07211421654309395,-0.004623107787375128,0.07386302018343625,-0.015301350581732449,-0.004062606527489245,7250.116689154143,2526.8947045889677,-161.99450187025533,-2395.9137996762065,278.52477594891246,7281.096235387161,-2526.8947045889668,7236.61466171399,280.27266197704483,-1.9285306211826427,-0.002157739300641177,0.00013353827593282219,0.9995596658441003,0.02871281112153377,-0.0012084602855962515,0.007388404351937891,1.1102230246251565e-16,2.220446049250313e-16,0.9998879022097408,0.014700905386431871,0.002840140035806333,-2155.840104338429,-198.66758683673334,7368.074084015031,-2167.3243267949238,-653.0726245905488,7338.380780700927,228.58947288128275,-931.5974005394612,57.2845453137661,960.9414045277833,4800.0,-1653.1133879764234,-38.720006183074815,4798.718373824595,-1652.1911305822805,-38.3367662063101,11905.59620782564,-2466.3451481955026,-654.8304245811233,1.6248068298494365,0.13984260419696398,-0.08081813097181707,-0.022327119955435407,0.06456298048981983,0.011095509825608807,0.001642153272556346,-0.0832400672167169,0.009537503967834982,29200.145104524898,1.2374332113713251
1.1500000000000001,2011.7468804578161,0.5276121990654855,29963.44189433021,1749.2696764313573,-0.01801185884756887,0.0007967930257133382,0.067477440817167,0.03277460742205539,0.01632546776689603,0.2617993877991494,0.01683746944167927,0.01876616002743381,-0.19432194698198257,0.015937137980376104,-0.00244069226053778,-4.089767902746436e-05,0.014974472501433848,0.0011751561223366457,0.0013877787163349624,0.05078646626962424,0.015526155848144202,0.20762327611338716,0.07214258052005883,-0.005158711021173072,0.07393467585137961,-0.015544288381571039,-0.004966203207243253,7276.486189474328,2528.350870162386,-180.79518926652045,-2397.429152284674,307.9208019466337,7304.287017472713,-2528.3508701623864,7259.926807373341,309.8309588264462,-1.9303326136623131,-0.0021466788775607597,0.0001476240954390765,0.9994614582856377,0.031829936793239075,-0.0009156640972359523,0.007925281354383085,0.0,1.1102230246251565e-16,0.9998727029494298,0.015783735458873665,0.002334864357003793,-2152.595078968447,-220.02739082320997,7395.297063811015,-2158.6273839149953,-724.1673763403577,7361.277451446867,238.80176836967848,-1032.0881782869915,56.99043397415426,1060.886516975689,4800.0,-1657.6995854845636,-120.79189373831781,4798.712377413288,-1656.7742665793676,-120.36115677378697,11919.325356976335,-2505.9612222423107,-800.6228624709274,1.6430828751884892,0.14016427602397166,-0.08094386609141405,-0.026266699650079064,0.06455542374438018,0.006433436540153603,-0.0025147023919394607,-0.07879159389287314,-0.00015113490879292701,29205.485072478485,1.2345226489591115
1.2000000000000002,2099.1953989244453,0.6003245566133026,29961.86918302302,1749.23790473793,-0.01795310104145204,0.0008661819615300992,0.07423559517151856,0.03310964516914467,0.017372029102179276,0.2617993877991494,0.01689007711047134,0.01886091217942676,-0.187563792627631,0.016219568058673417,-0.0014888830772474826,-4.5290634259437765e-05,0.01499560851491396,0.0011217332700883909,0.0014274707602554182,0.05106274621059681,0.016503187180633032,0.20816995863113338,0.07212945512771318,-0.005666556401549197,0.0739989428463633,-0.015526427224083303,-0.005808012031092541,7296.974245959796,2528.3512563628847,-198.62960245215274,-2397.604143890966,340.4915870883609,7321.093563954525,-2528.3512563628847,7276.876944305782,342.5682205584938,-1.9309090595722804,-0.002138648781029792,0.00016322509852454377,0.999347582345147,0.035107440202415977,-0.0006744671235858666,0.008451177281479122,0.0,1.6554411921138046e-17,0.9998562453933124,0.01684396954001321,0.0019414525807527317,-2148.996663573057,-240.32651419059152,7416.326816372878,-2150.2136942035036,-796.3787082371714,7377.005419751895,247.39044968746248,-1136.8702953255324,55.91185579736975,1164.818543211274,4800.0,-1650.0636080949869,-198.20699990542562,4798.706744527177,-1649.1420054331472,-197.73153812394827,11931.858780933984,-2503.5376166771207,-936.5049916570201,1.6576866682043847,0.1402548113859429,-0.0812722410282157,-0.029955363433725016,0.06407317510135276,0.0018107072394246693,-0.006567498736033128,-0.07377327567291904,-0.00964497286054855,29210.80405462372,1.2266344925969277
1.25,2186.6424133473174,0.6791902969518276,29960.301521693567,1749.2061114615815,-0.01789701437794762,0.0009375554995427748,0.08131275612901812,0.03332719277679196,0.018384210564111658,0.2617993877991494,0.016940284320468978,0.018957607345235328,-0.18048663167013146,0.016386908456322846,-0.0005733967811236695,-4.9490243907137836e-05,0.015016709871410587,0.001041692358229918,0.0014636761718824732,0.05122420715473952,0.017443861030091077,0.2085438452842712,0.07207607832867198,-0.006142928638660728,0.07405542292599739,-0.015253832338147543,-0.006582167230206038,7311.406099916169,2526.938534349705,-215.3669213245357,-2396.4746192889847,376.2420868050947,7331.303975515132,-2526.938534349705,7287.248767582067,378.48874907443417,-1.9302817251457192,-0.00213375208377804,0.00018034341896069816,0.9992165521053695,0.03854498460898549,-0.0004870259539336513,0.0089626427949915,0.0,2.220446049250313e-16,0.9998388676796992,0.01787369724692978,0.0016642186461283872,-2145.13114349465,-259.41148451580506,7430.9877192728745,-2142.2275778411677,-869.4110950228928,7385.353463285389,254.24704144781708,-1245.6531818279875,54.049487770256746,1272.48369522418,4800.0,-1630.6207663643404,-270.4008923853306,4798.701515535411,-1629.709432054268,-269.88380172526786,11943.131876199717,-2460.029583707659,-1061.5251139691225,1.668524761643623,0.14011995058172655,-0.08179455473711074,-0.03336704059160372,0.06313403515689214,-0.0026972160843269366,-0.010446274177900727,-0.06823354315757403,-0.01878279888921225,29216.1027734552,1.2140405585831848
1.3,2274.087916588118,0.7643751246542306,29958.738618412975,1749.1742983298818,-0.017844929760036123,0.0010107393081368876,0.08870795151480726,0.033426090825387465,0.019354612521336634,0.2617993877991494,0.016986900459011477,0.019056082917971118,-0.17309143628434231,0.01643919036637609,0.00029852960336551604,-5.33963005992781e-05,0.01503778634152863,0.0009369711006401848,0.001496344057987611,0.05127102058542343,0.018340952565288313,0.20874312836354947,0.0719843585307663,-0.006584426596947964,0.07410379283997859,-0.014736873020363337,-0.007283467193842931,7319.715347789008,2524.1789661249727,-230.88725744366167,-2394.0986074139837,415.1588445546492,7334.815008538496,-2524.178966124973,7290.93444009448,417.5784416508441,-1.9284927790151725,-0.002132040199001201,0.00019897242279256483,0.9990668066312498,0.04214221265582179,-0.0003545062253043826,0.009456433019091454,1.1102230246251565e-16,7.702917622330607e-18,0.9998209003997833,0.01886533732354284,0.00150538082740367,-2141.0842641222252,-277.14167553438244,7439.218495040036,-2134.7961598871047,-942.9750094285077,7386.234807983032,259.30244752687895,-1358.133853983157,51.41979944453578,1383.621812636491,4800.0,-1599.9810842535935,-336.8568529697774,4798.696726947143,-1599.08623695103,-336.30152428464135,11953.092303202597,-2377.087551420801,-1174.8380523970184,1.6756080370248463,0.13976903874848948,-0.08249881138445654,-0.03647839039106742,0.06176342809588405,-0.00701823666474144,-0.014085132946916046,-0.06222699598927406,-0.027412141220161806,29221.382460076748,1.1970872987879329
1.35,2361.531899639587,0.8560293767937605,29957.180069121943,1749.1424676921763,-0.017798081205004115,0.0010855565110361454,0.0964202357070838,0.03340726443754406,0.020276304439517556,0.2617993877991494,0.017028821858138702,0.019156173933687626,-0.16537915209206577,0.016378442579405572,0.0011201305058299305,-5.691569767412472e-05,0.015058847852209576,0.000809887522117882,0.0015254565963204116,0.051205345642548306,0.019187708465846547,0.20876906803925885,0.07185682981776745,-0.006988006107068829,0.0741438083583861,-0.013989970418400149,-0.00790743978005705,7321.943281803773,2520.1608517837553,-245.08316701032868,-2390.5550477591437,457.2121205724184,7331.6314789863245,-2520.1608517837562,7287.934094686104,459.8069332629303,-1.9256037048231258,-0.002133513114639153,0.00021909772849718347,0.9988967078041953,0.045898743377856946,-0.00027708196392508676,0.009929537746504005,0.0,2.220446049250313e-16,0.999802655011452,0.019811729702087017,0.0014650591328884423,-2136.939409322449,-293.39119705458427,7441.07125795353,-2128.02662101896,-1016.7925952795431,7379.6859972485245,262.5284267401835,-1474.0047158519615,48.05451826219996,1497.9720671380724,4800.0,-1558.9354008096936,-397.1126684008781,4798.6924109431575,-1558.0628255403146,-396.52275476902685,11961.700634773837,-2257.0170286554576,-1275.7157951658687,1.6790398552000096,0.13921479837843811,-0.08336998113819082,-0.03926909536907167,0.059993833962393266,-0.011084807401027241,-0.017423395074685488,-0.05581409956008504,-0.035391882669815744,29226.644822477916,1.176188296991771
1.4000000000000001,2448.9743518421765,0.95428787339878,29955.62536694141,1749.1106224651917,-0.01775758682889822,0.001161829340852183,0.10444869866301243,0.033273669825447584,0.02114291542767255,0.2617993877991494,0.01706504879641517,0.01925771461619874,-0.15735068913613715,0.016208621029032422,0.0018852008114738084,-5.9963867552287674e-05,0.015079904396122024,0.0006630927228027039,0.001551030969928082,0.051031256654345825,0.019977935832783105,0.20862591646657858,0.07169659665809232,-0.007351020328165719,0.07417530760893677,-0.013031276089351247,-0.008450402015053114,7318.236311848669,2514.992604877418,-257.8610788431847,-2385.942152768275,502.3583821321742,7321.863662831982,-2514.9926048774178,7278.353328671673,505.13010005364976,-1.9216938838220001,-0.00213812058385384,0.00024069839925348346,0.998704538913066,0.04981416939193061,-0.0002539523713151395,0.010379209527959279,1.1102230246251565e-16,1.1102230246251565e-16,0.9997844150355356,0.020706226478921005,0.0015413101749605401,-2132.7761307470323,-308.05064077531904,7436.708521480744,-2122.0044003262265,-1090.6034932410585,7365.86343887512,263.93775244204835,-1592.9618753732327,43.9997760431379,1615.279125677235,4800.0,-1508.4384467347847,-450.7670929936239,4798.68859493734,-1507.5934040183165,-450.1464733994023,11968.930890217764,-2102.7272815246224,-1363.557239910143,1.679002415649892,0.1384730470380991,-0.08439031318413447,-0.041722131980719564,0.057864101533445775,-0.014835026806780394,-0.02040664091887301,-0.049060732232957815,-0.04259464857894982,29231.892006335955,1.1518156212737323
1.4500000000000002,2536.415261117961,1.0592699168267838,29954.073913042084,1749.0787660701044,-0.017724432192758086,0.0012393808893484959,0.11279247361803879,0.03303020508672126,0.021948720528539578,0.2617993877991494,0.0170947003836083,0.01936054001205445,-0.14900691418111078,0.01593550470311289,0.002588180516485128,-6.246604537157663e-05,0.015100965935588235,0.0004995183145196883,0.0015731210578499829,0.050754637279479375,0.020706086747913046,0.20832078923147787,0.07150726917934429,-0.007671256605904547,0.0741982135948631,-0.011882287768502656,-0.00890951245394879,7308.841533097102,2508.8004938173217,-269.14260021346263,-2380.375433617556,550.543074095546,7305.722746414762,-2508.8004938173217,7262.398741779541,553.4928423272489,-1.9168588760185563,-0.002145764247528069,0.0002637482684491176,0.9984885040513529,0.05388805434378766,-0.0002833755160477673,0.01080298915344484,0.0,1.1102230246251565e-16,0.9997664302473349,0.0215427798477953,0.0017301985233589992,-2128.6690375609533,-321.0286346319137,7426.398249301514,-2116.7923574502984,-1164.170657668189,7345.03771319231,263.5830761672578,-1714.713731763735,39.31496677754785,1735.2996532454065,4800.0,-1449.5892260612536,-497.4858085919335,4798.685301180071,-1448.7763718281685,-496.8385482863664,11974.77093448093,-1917.669810520273,-1437.896757952784,1.6757418937679829,0.13756236565680446,-0.08553969473936066,-0.04382401101422444,0.05541865531540214,-0.018213627625892626,-0.022987631104523787,-0.04203758067009747,-0.04890892436087271,29237.1265491567,1.124490185426544
1.5,2623.854614216873,1.1710794479778768,29952.525028854452,1749.0469023623216,-0.0176994562770321,0.0013180369422411964,0.12145074311837112,0.03268358722794296,0.022688720650571703,0.2617993877991494,0.01711702709019765,0.01946448770428777,-0.14034864468077846,0.015566560137745267,0.0032242329462839336,-6.435833761202666e-05,0.01512204230170544,0.00032231951572074687,0.0015918187814182127,0.050383043504975245,0.021367336390633204,0.20786348698862056,0.07129289026440298,-0.007946968777272754,0.07421253577219858,-0.010567409915121326,-0.00928281451100493,7294.100537909915,2501.726093218106,-278.86566357963494,-2373.9854242243136,601.7035806004656,7283.514417148244,-2501.726093218106,7240.371606128335,604.8320575378873,-1.9112084338319604,-0.0021563006467046047,0.00028821735578076087,0.9982467283115125,0.05811993067130669,-0.0003627180938960847,0.0111987280397498,0.0,2.220446049250313e-16,0.9997489138517521,0.022316024952920337,0.0020259028956164625,-2124.6870315880087,-332.2531615911643,7410.507068707524,-2112.43084676006,-1237.285995307997,7317.585766113099,261.5545774642537,-1838.9895759084625,34.07134896485513,1857.8090090514622,4800.0,-1383.6090810857224,-537.0067076828814,4798.682546415506,-1382.83239866992,-536.3370156303349,11979.222723114992,-1705.7678418140622,-1498.4113043385562,1.669552924454926,0.13650372360485932,-0.08679604899352074,-0.04556498029954197,0.052706612085532095,-0.021172841038902823,-0.02512708508320166,-0.03481938570635071,-0.05424086459740088,29242.351328676068,1.0947712922722388
1.55,2711.2923969706585,1.289805365979255,29950.977969379874,1749.0150355553446,-0.017683340301246065,0.0013976278813121468,0.13042274313304114,0.03224219801452142,0.023358714066233244,0.2617993877991494,0.017131420727894146,0.019569399588831526,-0.13137664466610843,0.015110777286627464,0.0037893144774017173,-6.558857910455756e-05,0.015143143089599355,0.00013481496840591988,0.0016072550094511002,0.049925538315767515,0.02195765265281365,0.2072662710581657,0.07105785587035479,-0.008176903912280417,0.0742183705769903,-0.00911346759794562,-0.009569269159898246,7274.441602960938,2493.9234942642947,-286.98547862721966,-2366.9151453499917,655.7722834119036,7255.630721105002,-2493.9234942642943,7212.659793493791,659.0797084539877,-1.9048642870389982,-0.0021695450654259023,0.0003140733287815821,0.9979772587136317,0.06250929772504403,-0.0004885201370546218,0.011564607058706924,1.1102230246251565e-16,1.1102230246251565e-16,0.9997320424233068,0.023021355599713657,0.0024208549058200727,-2120.8928516970213,-341.6726035929465,7389.491798401953,-2108.938608199535,-1309.7756534911757,7283.981149031236,257.9765371504568,-1965.5479369030793,28.35042792623426,1982.607962444339,4800.0,-1311.8178599233202,-569.1443312661254,4798.680341604202,-1311.0806051837692,-568.4565151780297,11982.30237566005,-1471.338209130931,-1544.9258141424018,1.6607630185048934,0.1353200675321276,-0.0881357642008588,-0.04693918260859955,0.04978082402481883,-0.023673121454634294,-0.026794304146761094,-0.027484046181151522,-0.05851576121426533,29247.56950653544,1.0632455510051435
1.6,2798.728594550369,1.4155220162494184,29949.431937346657,1748.9831701401706,-0.01767659955282577,0.0014779906317845537,0.13970776509628102,0.031715901819315,0.023955357491032725,0.2617993877991494,0.017137421734974827,0.01967512369300195,-0.12209162270286855,0.01457848008434004,0.004280233798030775,-6.611696577571122e-05,0.015164277551014557,-5.957560190148197e-05,0.0016195999332322523,0.049392501372140796,0.022473855287253673,0.20654359759796823,0.07080683009194765,-0.008360322555187113,0.07421590080916275,-0.007549183123874412,-0.009768775553364866,7250.370412612463,2485.556327477202,-293.475256550976,-2359.3173570375643,712.6796198627231,7222.540348316499,-2485.556327477202,7179.728119993316,716.1658891356767,-1.897957741879056,-0.002185276127812925,0.0003412829633944554,0.997678065759939,0.06705562026840783,-0.0006565732927965389,0.011899151374663937,0.0,1.5565077438745023e-17,0.999715958216148,0.023654990796518588,0.002905907497765306,-2117.3428747735925,-349.2564773717507,7363.889472759299,-2106.314340824146,-1381.5047872986663,7244.782503544551,253.0030162134185,-2094.1844071613896,22.24215522805207,2109.529229681394,4800.0,-1235.608639705068,-593.7933043300983,4798.678691721698,-1234.9133000802844,-593.0917238748053,11984.040062717342,-1219.0071401266498,-1577.4166495162294,1.6497175198661609,0.13403588156975843,-0.08953414558360343,-0.04794476226090503,0.0466968667990178,-0.025683719247383552,-0.027967627654892635,-0.0201115930461096,-0.06167914451602058,29252.78446831486,1.0305153799483882
1.6500000000000001,2886.163191723611,1.5482898497242845,29947.886097943185,1748.951310801747,-0.01767957833292084,0.0015589706284462324,0.1493051558453451,0.031115839158255665,0.0244762149089226,0.2617993877991494,0.0171347236704378,0.019781516011279532,-0.11249423195380448,0.013981115487817775,0.004694698897643068,-6.59164546628203e-05,0.015185454485694508,-0.0002573947246599697,0.0016290628331530911,0.04879541749117644,0.02291366278100461,0.20571181573364966,0.07054465658390546,-0.008497011632408649,0.07420539380010044,-0.005904625481065715,-0.009882178313782033,7222.459506699137,2476.794654571271,-298.32667717289706,-2351.351653084409,772.3570435007578,7184.777538406271,-2476.794654571271,7142.10730061648,776.02179161622,-1.8906271405014108,-0.00220324105781917,0.000369813557325991,0.9973470454719557,0.07175832736067442,-0.0008620110582351653,0.01220124090797994,0.0,9.860734055460937e-18,0.9997007733144818,0.02421403019791999,0.0034705296427525456,-2114.087109755646,-354.99583593017223,7334.306070922584,-2104.5387979501015,-1452.3816422155892,7200.620522316984,246.81285513430748,-2224.738685716347,15.842983910712974,2238.443612272072,4800.0,-1156.4214838400633,-610.9306283223011,4798.677595642364,-1155.7697518760851,-610.2196471783756,11984.479695281858,-953.6215706462588,-1596.012894503569,1.6367657208599284,0.1326767269981595,-0.09096588130354877,-0.048583914798086866,0.0435119919155961,-0.027183091431978723,-0.028634714398906858,-0.012783050743636754,-0.06369749766843402,29257.99976106133,0.9971873259456533
1.7000000000000002,2973.5961731081848,1.6881562535345582,29946.339593853278,1748.9194623340331,-0.01769244806915384,0.0016404237701039825,0.15921431553524945,0.030454200048344066,0.024919792519273454,0.2617993877991494,0.017123174872844385,0.01988844232996856,-0.10258507226390012,0.013331025175499889,0.005031350189304895,-6.497292706311901e-05,0.015206682133220613,-0.00045521034671932475,0.0016358911729680808,0.048146648117497914,0.02327572535856212,0.20478883569490067,0.07027626801920445,-0.008587289328515817,0.07418719831501965,-0.0042106431471083325,-0.009911260497343715,7191.336664478037,2467.811788344351,-301.5500741878307,-2343.18145556108,834.739793513596,7142.929827677025,-2467.811788344351,7100.381734987982,838.5824792089956,-1.8830152293850768,-0.0022231614962811906,0.0003996342513554678,0.9969820217451296,0.07661681160733823,-0.0010994091552774293,0.012470116103265436,0.0,1.1102230246251565e-16,0.9996865750077607,0.024696496679801595,0.004103023397118238,-2111.1693164182034,-358.90331719273945,7301.404181260101,-2103.577228471813,-1522.3608010635537,7152.183647463207,239.60422708926671,-2357.10059457715,9.253819786182248,2369.2655047030153,4800.0,-1075.7167283059566,-620.6167114426494,4798.677046116232,-1075.1094899259717,-619.9006489286372,11983.678408786163,-680.1576891317894,-1600.9953350917515,1.6222487332946534,0.1312687698414298,-0.0924055135224073,-0.048862875155273724,0.04028406329164294,-0.028159143134594,-0.028792644377170773,-0.005579207143737164,-0.06455857247906316,29263.219029478183,0.9638604521336972
1.75,3061.0275234190904,1.8351565506202714,29944.791560317237,1748.8876295552188,-0.017715208586489804,0.0017222183287524118,0.1694346937220259,0.029743981691870924,0.02528555844404279,0.2617993877991494,0.017102777292288714,0.019995780009343544,-0.09236469407712367,0.012641204399582051,0.005289778434699244,-6.32851150771948e-05,0.015227968067159179,-0.0006497451090954581,0.0016442399695316544,0.04745919027836054,0.023559642786786177,0.20378968408195003,0.07001904927950792,-0.008400043178976878,0.06260929000640181,-0.0025388713760527287,-0.009188620022390053,7157.528824941313,2459.218511333141,-295.0274517335292,-2335.4248085517024,907.891262983379,7097.491079586394,-2459.218511333141,7055.0347962986925,911.9120259870627,-1.8756309957598112,-0.0022448072172391283,0.0004345882116396926,0.9965807488474738,0.08163042874477806,-0.0013628940623169289,0.01270537875574616,0.0,1.1102230246251565e-16,0.9996734317408958,0.0251013644963033,0.0047907590008398684,-2109.2624962429586,-352.87852699736595,7265.776230434904,-2104.2248234157005,-1583.4196485770253,7101.4108367737135,231.19998513600194,-2491.3109115604043,3.919757187319192,2502.01895590006,4058.7348140280187,-994.9482991779759,-622.9950434271227,4057.608832495113,-994.3870797581525,-622.3322048472205,10115.270945946095,-410.1846844622328,-1484.5301893108353,1.4220255386731286,0.11280322941868044,-0.07688518654998046,-0.046214527526170744,0.037226173043756444,-0.36931080845498704,0.31040653944853697,0.05296695258205961,-0.06115780495772993,29268.445951951187,0.9313207016207627
1.8,3148.4572276885356,1.9893236236915057,29943.241139797883,1748.8558172254611,-0.017747695841944577,0.0018044303272288786,0.17996579499204213,0.028998640011078,0.025574325270071974,0.2617993877991494,0.01707367953765332,0.020103600454572934,-0.08183359280710745,0.01192496047342484,0.0054707248154990396,-6.086404306335285e-05,0.0152493084394535,-0.0008378377227379886,0.0016517176159544888,0.04674633585302246,0.023766151511938182,0.20273785772144237,0.06976680783873646,-0.008140526432242775,0.049541502686003686,-0.000883765697415554,-0.008306739392172021,7121.860821482973,2450.797798550859,-285.9638397861232,-2327.843538195876,984.621370509856,7049.231707786212,-2450.7977985508596,7006.841458227899,988.8201967600095,-1.8682951940461345,-0.0022678090441608143,0.0004712490385154463,0.9961409138939264,0.08679849751075425,-0.0016462575900305712,0.012906987735174543,0.0,1.1102230246251565e-16,0.9996613990071026,0.02542857174560828,0.0055204233660814984,-2107.8413099257723,-344.1236318920049,7228.255022186541,-2105.6918942980988,-1642.6912621029062,7048.170953610527,222.15164389777738,-2627.312632612762,-1.0607541756844512,2636.6881020652613,3222.2596741399416,-915.5042592434478,-618.6852622438389,3221.3564520162904,-914.9885561089256,-618.0864531739134,8005.447914456394,-142.80835008345917,-1342.292137654182,1.200138421114,0.09215366913847661,-0.05914866852904909,-0.042917990667710015,0.03425634214996319,-0.4129912056040766,0.3547303604186273,0.06593073716921458,-0.05939661787586509,29273.684178200627,0.8999799612791304
1.85,3235.8852714804366,2.150691770220977,29941.687496053466,1748.8240299682348,-0.017789587728081476,0.0018870162080264485,0.19080720613986202,0.02823150060126454,0.025789453205043777,0.2617993877991494,0.017036171653286362,0.02021186338369363,-0.07099218165928756,0.011195328947978034,0.0055775898213501485,-5.773261322768045e-05,0.015270705979722781,-0.0010166945731687935,0.001659308137360887,0.04602108832934615,0.02389865490143767,0.2016535602648788,0.06952260611983682,-0.00783688297076167,0.03612359684250096,0.0007310259076828435,-0.007344745000835829,7085.042329376777,2442.657628065801,-275.34672586630734,-2320.536960968947,1063.9652790973514,6998.8100618058415,-2442.657628065802,6956.459205891735,1068.3422730560067,-1.8611009644279077,-0.0022918537723188724,0.0005091570706351387,0.9956601315831376,0.09212029933364684,-0.0019431642996860117,0.013075815042778398,0.0,2.4448758989548125e-17,0.999650494346943,0.025680125698215955,0.006278558436170356,-2106.855499702015,-333.6387730238433,7189.580098236933,-2107.811785882821,-1701.1956305708086,6993.088003040883,212.725175086126,-2765.16090966816,-5.722058764958092,2773.337267342142,2363.5961306903027,-838.6663182426018,-608.7125566862937,2362.921972526541,-838.1947723320002,-608.1826542770829,5838.286102950428,118.14821254731909,-1187.0557313285992,0.9785915076573368,0.0710240121313355,-0.04084507385282912,-0.039279167650032115,0.03140777399910686,-0.42259314014282234,0.36607189352439934,0.072776460353558,-0.0569713630171266,29278.93726940375,0.8703622035241502
